{"type": "FeatureCollection", "features": [{"type": "Feature", "geometry": {"type": "Point", "coordinates": [151.00782887, -33.74039687]}, "properties": {"name": "1 ADEY PLACE CASTLE HILL 2154", "locID": "LOC000090512738", "tech": "HFC", "upgrade": "NULL_NA"}}, {"type": "Feature", "geometry": {"type": "Point", "coordinates": [151.02040594, -33.73007828]}, "properties": {"name": "1 ALICE HANCOCK CLOSE CASTLE HILL 2154", "locID": "LOC000106288495", "tech": "FTTN", "upgrade": "NULL_NA"}}, {"type": "Feature", "geometry": {"type": "Point", "coordinates": [151.02323389, -33.71420904]}, "properties": {"name": "1 AMBERLEA COURT CASTLE HILL 2154", "locID": "LOC000102679166", "tech": "FTTN", "upgrade": "FTTP_SA"}}, {"type": "Feature", "geometry": {"type": "Point", "coordinates": [150.99508245, -33.74787807]}, "properties": {"name": "1 AMBLESIDE DRIVE CASTLE HILL 2154", "locID": "LOC000078554834", "tech": "HFC", "upgrade": "NULL_NA"}}, {"type": "Feature", "geometry": {"type": "Point", "coordinates": [151.00539316, -33.72338186]}, "properties": {"name": "1 ANNELIESE PLACE CASTLE HILL 2154", "locID": "LOC000068549613", "tech": "HFC", "upgrade": "NULL_NA"}}, {"type": "Feature", "geometry": {"type": "Point", "coordinates": [150.99520895, -33.73459872]}, "properties": {"name": "1 ANTHONY ROAD CASTLE HILL 2154", "locID": "LOC000090381989", "tech": "HFC", "upgrade": "NULL_NA"}}, {"type": "Feature", "geometry": {"type": "Point", "coordinates": [150.97858658, -33.7134788]}, "properties": {"name": "1 APAP AVENUE CASTLE HILL 2154", "locID": "LOC000075672377", "tech": "HFC", "upgrade": "NULL_NA"}}, {"type": "Feature", "geometry": {"type": "Point", "coordinates": [151.00220926, -33.71629415]}, "properties": {"name": "1 APPLECROSS AVENUE CASTLE HILL 2154", "locID": "LOC000027987124", "tech": "HFC", "upgrade": "NULL_NA"}}, {"type": "Feature", "geometry": {"type": "Point", "coordinates": [150.98559413, -33.70484073]}, "properties": {"name": "1 ARBOR GLEN CASTLE HILL 2154", "locID": "LOC000005405152", "tech": "HFC", "upgrade": "NULL_NA"}}, {"type": "Feature", "geometry": {"type": "Point", "coordinates": [150.99281595, -33.71806307]}, "properties": {"name": "1 ARLINGTON AVENUE CASTLE HILL 2154", "locID": "LOC000005465960", "tech": "HFC", "upgrade": "NULL_NA"}}, {"type": "Feature", "geometry": {"type": "Point", "coordinates": [151.02228418, -33.72254991]}, "properties": {"name": "1 ARMIDALE CRESCENT CASTLE HILL 2154", "locID": "LOC000079045587", "tech": "HFC", "upgrade": "NULL_NA"}}, {"type": "Feature", "geometry": {"type": "Point", "coordinates": [150.9943282, -33.7210756]}, "properties": {"name": "1 ASHMEAD AVENUE CASTLE HILL 2154", "locID": "LOC000098915471", "tech": "HFC", "upgrade": "NULL_NA"}}, {"type": "Feature", "geometry": {"type": "Point", "coordinates": [151.00543077, -33.71528103]}, "properties": {"name": "1 BALINTORE DRIVE CASTLE HILL 2154", "locID": "LOC000010447739", "tech": "HFC", "upgrade": "NULL_NA"}}, {"type": "Feature", "geometry": {"type": "Point", "coordinates": [150.98064023, -33.72133937]}, "properties": {"name": "1 BANJO COURT CASTLE HILL 2154", "locID": "LOC000014916909", "tech": "HFC", "upgrade": "NULL_NA"}}, {"type": "Feature", "geometry": {"type": "Point", "coordinates": [151.01049558, -33.7205651]}, "properties": {"name": "1 BANKS ROAD CASTLE HILL 2154", "locID": "LOC000023789587", "tech": "HFC", "upgrade": "NULL_NA"}}, {"type": "Feature", "geometry": {"type": "Point", "coordinates": [151.0273618, -33.71798924]}, "properties": {"name": "1 BARCOTE PLACE CASTLE HILL 2154", "locID": "LOC000068398897", "tech": "FTTC", "upgrade": "FTTP_SA"}}, {"type": "Feature", "geometry": {"type": "Point", "coordinates": [151.02153407, -33.72994988]}, "properties": {"name": "1 BARKER DRIVE CASTLE HILL 2154", "locID": "LOC000164436481", "tech": "FTTN", "upgrade": "NULL_NA"}}, {"type": "Feature", "geometry": {"type": "Point", "coordinates": [150.99815572, -33.74276277]}, "properties": {"name": "1 BARONIA CIRCUIT CASTLE HILL 2154", "locID": "LOC000014137793", "tech": "HFC", "upgrade": "NULL_NA"}}, {"type": "Feature", "geometry": {"type": "Point", "coordinates": [151.0032525, -33.72795888]}, "properties": {"name": "1 BARRAWARN PLACE CASTLE HILL 2154", "locID": "LOC000033032001", "tech": "HFC", "upgrade": "NULL_NA"}}, {"type": "Feature", "geometry": {"type": "Point", "coordinates": [151.02447119, -33.724555]}, "properties": {"name": "1 BASSETT PLACE CASTLE HILL 2154", "locID": "LOC000109901939", "tech": "HFC", "upgrade": "NULL_NA"}}, {"type": "Feature", "geometry": {"type": "Point", "coordinates": [151.01749313, -33.73571157]}, "properties": {"name": "1 BAYBERRY WAY CASTLE HILL 2154", "locID": "LOC000046987901", "tech": "HFC", "upgrade": "NULL_NA"}}, {"type": "Feature", "geometry": {"type": "Point", "coordinates": [151.02785277, -33.71866717]}, "properties": {"name": "1 BAYDON STREET CASTLE HILL 2154", "locID": "LOC000078668659", "tech": "FTTC", "upgrade": "FTTP_SA"}}, {"type": "Feature", "geometry": {"type": "Point", "coordinates": [150.97849731, -33.72013018]}, "properties": {"name": "1 BEAUMARIS AVENUE CASTLE HILL 2154", "locID": "LOC000005628768", "tech": "HFC", "upgrade": "NULL_NA"}}, {"type": "Feature", "geometry": {"type": "Point", "coordinates": [150.98004009, -33.72106582]}, "properties": {"name": "1 BELINDA COURT CASTLE HILL 2154", "locID": "LOC000009171812", "tech": "HFC", "upgrade": "NULL_NA"}}, {"type": "Feature", "geometry": {"type": "Point", "coordinates": [150.9923593, -33.72634994]}, "properties": {"name": "1 BELVEDERE AVENUE CASTLE HILL 2154", "locID": "LOC000049282046", "tech": "HFC", "upgrade": "NULL_NA"}}, {"type": "Feature", "geometry": {"type": "Point", "coordinates": [150.99938665, -33.71476818]}, "properties": {"name": "1 BENBULLEN WAY CASTLE HILL 2154", "locID": "LOC000120146792", "tech": "HFC", "upgrade": "NULL_NA"}}, {"type": "Feature", "geometry": {"type": "Point", "coordinates": [151.01396966, -33.74584508]}, "properties": {"name": "1 BENDTREE WAY CASTLE HILL 2154", "locID": "LOC000057642925", "tech": "HFC", "upgrade": "NULL_NA"}}, {"type": "Feature", "geometry": {"type": "Point", "coordinates": [150.97665771, -33.71438197]}, "properties": {"name": "1 BENTHAM PLACE CASTLE HILL 2154", "locID": "LOC000086125875", "tech": "HFC", "upgrade": "NULL_NA"}}, {"type": "Feature", "geometry": {"type": "Point", "coordinates": [151.0053415, -33.74493665]}, "properties": {"name": "1 BERNARD PLACE CASTLE HILL 2154", "locID": "LOC000035647987", "tech": "HFC", "upgrade": "NULL_NA"}}, {"type": "Feature", "geometry": {"type": "Point", "coordinates": [151.00213278, -33.72757759]}, "properties": {"name": "1 BIMBIL PLACE CASTLE HILL 2154", "locID": "LOC000049327912", "tech": "HFC", "upgrade": "NULL_NA"}}, {"type": "Feature", "geometry": {"type": "Point", "coordinates": [150.98850683, -33.708177]}, "properties": {"name": "1 BISHOPSGATE AVENUE CASTLE HILL 2154", "locID": "LOC000171545480", "tech": "HFC", "upgrade": "NULL_NA"}}, {"type": "Feature", "geometry": {"type": "Point", "coordinates": [151.01796298, -33.73983109]}, "properties": {"name": "1 BOLWARRA CRESCENT CASTLE HILL 2154", "locID": "LOC000074338757", "tech": "HFC", "upgrade": "NULL_NA"}}, {"type": "Feature", "geometry": {"type": "Point", "coordinates": [151.00959293, -33.73750613]}, "properties": {"name": "1 BONNEFIN PLACE CASTLE HILL 2154", "locID": "LOC000008197029", "tech": "HFC", "upgrade": "NULL_NA"}}, {"type": "Feature", "geometry": {"type": "Point", "coordinates": [150.97280782, -33.71823639]}, "properties": {"name": "1 BORDEAUX CRESCENT CASTLE HILL 2154", "locID": "LOC000026547639", "tech": "FTTN", "upgrade": "FTTP_SA"}}, {"type": "Feature", "geometry": {"type": "Point", "coordinates": [150.99592514, -33.72529556]}, "properties": {"name": "1 BOUNTY AVENUE CASTLE HILL 2154", "locID": "LOC000034070482", "tech": "HFC", "upgrade": "NULL_NA"}}, {"type": "Feature", "geometry": {"type": "Point", "coordinates": [150.99347643, -33.74509714]}, "properties": {"name": "1 BOWMAN AVENUE CASTLE HILL 2154", "locID": "LOC000018438438", "tech": "FTTC", "upgrade": "FTTP_SA"}}, {"type": "Feature", "geometry": {"type": "Point", "coordinates": [150.98934189, -33.72296748]}, "properties": {"name": "1 BRACKEN FELL CLOSE CASTLE HILL 2154", "locID": "LOC000041982331", "tech": "HFC", "upgrade": "NULL_NA"}}, {"type": "Feature", "geometry": {"type": "Point", "coordinates": [151.0166057, -33.73906438]}, "properties": {"name": "1 BRAE PLACE CASTLE HILL 2154", "locID": "LOC000031779830", "tech": "HFC", "upgrade": "NULL_NA"}}, {"type": "Feature", "geometry": {"type": "Point", "coordinates": [151.002518, -33.71535558]}, "properties": {"name": "1 BRAEFIELD PLACE CASTLE HILL 2154", "locID": "LOC000099745443", "tech": "HFC", "upgrade": "NULL_NA"}}, {"type": "Feature", "geometry": {"type": "Point", "coordinates": [151.02469208, -33.71416582]}, "properties": {"name": "1 BRAEMORE COURT CASTLE HILL 2154", "locID": "LOC000006415793", "tech": "FTTN", "upgrade": "FTTP_SA"}}, {"type": "Feature", "geometry": {"type": "Point", "coordinates": [151.006388, -33.72437077]}, "properties": {"name": "1 BRECON COURT CASTLE HILL 2154", "locID": "LOC000074355862", "tech": "HFC", "upgrade": "NULL_NA"}}, {"type": "Feature", "geometry": {"type": "Point", "coordinates": [151.01046593, -33.73185795]}, "properties": {"name": "1 BRISBANE ROAD CASTLE HILL 2154", "locID": "LOC000045088929", "tech": "HFC", "upgrade": "NULL_NA"}}, {"type": "Feature", "geometry": {"type": "Point", "coordinates": [151.00117472, -33.72192953]}, "properties": {"name": "1 BRITANNIA ROAD CASTLE HILL 2154", "locID": "LOC000063310394", "tech": "HFC", "upgrade": "NULL_NA"}}, {"type": "Feature", "geometry": {"type": "Point", "coordinates": [150.99161473, -33.71038027]}, "properties": {"name": "1 BROADSWORD PLACE CASTLE HILL 2154", "locID": "LOC000009651069", "tech": "HFC", "upgrade": "NULL_NA"}}, {"type": "Feature", "geometry": {"type": "Point", "coordinates": [150.97989323, -33.72205788]}, "properties": {"name": "1 BROOKE AVENUE CASTLE HILL 2154", "locID": "LOC000007980080", "tech": "HFC", "upgrade": "NULL_NA"}}, {"type": "Feature", "geometry": {"type": "Point", "coordinates": [150.97019678, -33.71734658]}, "properties": {"name": "1 BROOKFIELD WAY CASTLE HILL 2154", "locID": "LOC000008862435", "tech": "FTTN", "upgrade": "FTTP_SA"}}, {"type": "Feature", "geometry": {"type": "Point", "coordinates": [151.0214538, -33.73093114]}, "properties": {"name": "1 BROUGHTON AVENUE CASTLE HILL 2154", "locID": "LOC000153412516", "tech": "FTTN", "upgrade": "NULL_NA"}}, {"type": "Feature", "geometry": {"type": "Point", "coordinates": [150.99890686, -33.74849459]}, "properties": {"name": "1 BRUNETTE DRIVE CASTLE HILL 2154", "locID": "LOC000033176973", "tech": "HFC", "upgrade": "NULL_NA"}}, {"type": "Feature", "geometry": {"type": "Point", "coordinates": [151.00352034, -33.74769014]}, "properties": {"name": "1 BRUSHFORD AVENUE CASTLE HILL 2154", "locID": "LOC000013178460", "tech": "HFC", "upgrade": "NULL_NA"}}, {"type": "Feature", "geometry": {"type": "Point", "coordinates": [151.00578199, -33.75059094]}, "properties": {"name": "1 BYANBI PLACE CASTLE HILL 2154", "locID": "LOC000088181814", "tech": "HFC", "upgrade": "NULL_NA"}}, {"type": "Feature", "geometry": {"type": "Point", "coordinates": [150.99105418, -33.73101322]}, "properties": {"name": "1 CADMAN CRESCENT CASTLE HILL 2154", "locID": "LOC000045757278", "tech": "HFC", "upgrade": "NULL_NA"}}, {"type": "Feature", "geometry": {"type": "Point", "coordinates": [151.00039409, -33.74137321]}, "properties": {"name": "1 CAMBEWARRA AVENUE CASTLE HILL 2154", "locID": "LOC000040148945", "tech": "HFC", "upgrade": "NULL_NA"}}, {"type": "Feature", "geometry": {"type": "Point", "coordinates": [151.0110779, -33.74615136]}, "properties": {"name": "1 CANDLEBUSH CRESCENT CASTLE HILL 2154", "locID": "LOC000014825080", "tech": "HFC", "upgrade": "NULL_NA"}}, {"type": "Feature", "geometry": {"type": "Point", "coordinates": [150.99093976, -33.73790285]}, "properties": {"name": "1 CANHAM CLOSE CASTLE HILL 2154", "locID": "LOC000063283028", "tech": "HFC", "upgrade": "NULL_NA"}}, {"type": "Feature", "geometry": {"type": "Point", "coordinates": [150.9748925, -33.72107877]}, "properties": {"name": "1 CAPRA PLACE CASTLE HILL 2154", "locID": "LOC000037447768", "tech": "FTTN", "upgrade": "FTTP_SA"}}, {"type": "Feature", "geometry": {"type": "Point", "coordinates": [151.00649713, -33.72497051]}, "properties": {"name": "1 CARCOOLA STREET CASTLE HILL 2154", "locID": "LOC000104058006", "tech": "HFC", "upgrade": "NULL_NA"}}, {"type": "Feature", "geometry": {"type": "Point", "coordinates": [151.02282704, -33.72027218]}, "properties": {"name": "1 CARINA PLACE CASTLE HILL 2154", "locID": "LOC000181969068", "tech": "HFC", "upgrade": "NULL_NA"}}, {"type": "Feature", "geometry": {"type": "Point", "coordinates": [151.00211395, -33.72354417]}, "properties": {"name": "1 CARINYAH CRESCENT CASTLE HILL 2154", "locID": "LOC000093518971", "tech": "HFC", "upgrade": "NULL_NA"}}, {"type": "Feature", "geometry": {"type": "Point", "coordinates": [150.99394015, -33.73704949]}, "properties": {"name": "1 CARNEGIE PLACE CASTLE HILL 2154", "locID": "LOC000062139891", "tech": "HFC", "upgrade": "NULL_NA"}}, {"type": "Feature", "geometry": {"type": "Point", "coordinates": [151.0041416, -33.71703052]}, "properties": {"name": "1 CARRBRIDGE DRIVE CASTLE HILL 2154", "locID": "LOC000018975456", "tech": "HFC", "upgrade": "NULL_NA"}}, {"type": "Feature", "geometry": {"type": "Point", "coordinates": [150.98845213, -33.72667721]}, "properties": {"name": "1 CARRINGTON ROAD CASTLE HILL 2154", "locID": "LOC000027213565", "tech": "FTTN", "upgrade": "NULL_NA"}}, {"type": "Feature", "geometry": {"type": "Point", "coordinates": [151.02813705, -33.72636562]}, "properties": {"name": "1 CASTLE LEA COURT CASTLE HILL 2154", "locID": "LOC000035231982", "tech": "HFC", "upgrade": "NULL_NA"}}, {"type": "Feature", "geometry": {"type": "Point", "coordinates": [151.00653179, -33.7302219]}, "properties": {"name": "1 CASTLE STREET CASTLE HILL 2154", "locID": "LOC000153540719", "tech": "FTTN", "upgrade": "NULL_NA"}}, {"type": "Feature", "geometry": {"type": "Point", "coordinates": [151.01682154, -33.73856717]}, "properties": {"name": "1 CASTLEWOOD DRIVE CASTLE HILL 2154", "locID": "LOC000009915706", "tech": "HFC", "upgrade": "NULL_NA"}}, {"type": "Feature", "geometry": {"type": "Point", "coordinates": [150.99655133, -33.73053483]}, "properties": {"name": "1 CECIL AVENUE CASTLE HILL 2154", "locID": "LOC000068782326", "tech": "HFC", "upgrade": "NULL_NA"}}, {"type": "Feature", "geometry": {"type": "Point", "coordinates": [151.02047004, -33.73070974]}, "properties": {"name": "1 CECILIA PLACE CASTLE HILL 2154", "locID": "LOC000173183358", "tech": "HFC", "upgrade": "NULL_NA"}}, {"type": "Feature", "geometry": {"type": "Point", "coordinates": [150.97758043, -33.71631457]}, "properties": {"name": "1 CELESTE AVENUE CASTLE HILL 2154", "locID": "LOC000015094302", "tech": "HFC", "upgrade": "NULL_NA"}}, {"type": "Feature", "geometry": {"type": "Point", "coordinates": [150.9849475, -33.70581152]}, "properties": {"name": "1 CHAINMAIL CRESCENT CASTLE HILL 2154", "locID": "LOC000066520803", "tech": "HFC", "upgrade": "NULL_NA"}}, {"type": "Feature", "geometry": {"type": "Point", "coordinates": [150.97004245, -33.72129982]}, "properties": {"name": "1 CHEPSTOW DRIVE CASTLE HILL 2154", "locID": "LOC000031285318", "tech": "FTTN", "upgrade": "FTTP_SA"}}, {"type": "Feature", "geometry": {"type": "Point", "coordinates": [151.00081711, -33.73251581]}, "properties": {"name": "1 CHERITON AVENUE CASTLE HILL 2154", "locID": "LOC000153411243", "tech": "FTTN", "upgrade": "NULL_NA"}}, {"type": "Feature", "geometry": {"type": "Point", "coordinates": [151.02912366, -33.72008845]}, "properties": {"name": "1 CHILDREY PLACE CASTLE HILL 2154", "locID": "LOC000078090868", "tech": "FTTC", "upgrade": "FTTP_SA"}}, {"type": "Feature", "geometry": {"type": "Point", "coordinates": [150.99482484, -33.72228529]}, "properties": {"name": "1 CHILTERN CRESCENT CASTLE HILL 2154", "locID": "LOC000029667947", "tech": "HFC", "upgrade": "NULL_NA"}}, {"type": "Feature", "geometry": {"type": "Point", "coordinates": [151.00662255, -33.74390984]}, "properties": {"name": "1 CHURCHWOOD WAY CASTLE HILL 2154", "locID": "LOC000004725714", "tech": "HFC", "upgrade": "NULL_NA"}}, {"type": "Feature", "geometry": {"type": "Point", "coordinates": [151.02036279, -33.72716548]}, "properties": {"name": "1 CLARKE DRIVE CASTLE HILL 2154", "locID": "LOC000050412933", "tech": "HFC", "upgrade": "NULL_NA"}}, {"type": "Feature", "geometry": {"type": "Point", "coordinates": [151.0221758, -33.73161525]}, "properties": {"name": "1 COBBLESTONE WAY CASTLE HILL 2154", "locID": "LOC000092465371", "tech": "FTTN", "upgrade": "NULL_NA"}}, {"type": "Feature", "geometry": {"type": "Point", "coordinates": [150.98539016, -33.73814094]}, "properties": {"name": "1 COMBARA AVENUE CASTLE HILL 2154", "locID": "LOC000036142466", "tech": "HFC", "upgrade": "NULL_NA"}}, {"type": "Feature", "geometry": {"type": "Point", "coordinates": [150.99884491, -33.74132327]}, "properties": {"name": "1 CONDINO WAY CASTLE HILL 2154", "locID": "LOC000084208337", "tech": "HFC", "upgrade": "NULL_NA"}}, {"type": "Feature", "geometry": {"type": "Point", "coordinates": [150.99575358, -33.74771881]}, "properties": {"name": "1 CONISTON PLACE CASTLE HILL 2154", "locID": "LOC000055418833", "tech": "HFC", "upgrade": "NULL_NA"}}, {"type": "Feature", "geometry": {"type": "Point", "coordinates": [150.99367476, -33.73488952]}, "properties": {"name": "1 COOLONG STREET CASTLE HILL 2154", "locID": "LOC000069397063", "tech": "HFC", "upgrade": "NULL_NA"}}, {"type": "Feature", "geometry": {"type": "Point", "coordinates": [151.00195407, -33.72651871]}, "properties": {"name": "1 COONARDOO PLACE CASTLE HILL 2154", "locID": "LOC000099831618", "tech": "HFC", "upgrade": "NULL_NA"}}, {"type": "Feature", "geometry": {"type": "Point", "coordinates": [151.00503229, -33.72171396]}, "properties": {"name": "1 COOPER COURT CASTLE HILL 2154", "locID": "LOC000008988830", "tech": "HFC", "upgrade": "NULL_NA"}}, {"type": "Feature", "geometry": {"type": "Point", "coordinates": [151.01779295, -33.74380776]}, "properties": {"name": "1 COPPERLEAF PLACE CASTLE HILL 2154", "locID": "LOC000099401968", "tech": "HFC", "upgrade": "NULL_NA"}}, {"type": "Feature", "geometry": {"type": "Point", "coordinates": [151.02201845, -33.71693218]}, "properties": {"name": "1 COPPLESTONE PLACE CASTLE HILL 2154", "locID": "LOC000018071411", "tech": "FTTP", "upgrade": "NULL_NA"}}, {"type": "Feature", "geometry": {"type": "Point", "coordinates": [151.02000945, -33.74137181]}, "properties": {"name": "1 COTTONWOOD PLACE CASTLE HILL 2154", "locID": "LOC000046091638", "tech": "HFC", "upgrade": "NULL_NA"}}, {"type": "Feature", "geometry": {"type": "Point", "coordinates": [150.98651548, -33.71004818]}, "properties": {"name": "1 COURTYARD PLACE CASTLE HILL 2154", "locID": "LOC000029527597", "tech": "HFC", "upgrade": "NULL_NA"}}, {"type": "Feature", "geometry": {"type": "Point", "coordinates": [150.97577784, -33.71933149]}, "properties": {"name": "1 COVENTRY COURT CASTLE HILL 2154", "locID": "LOC000008875921", "tech": "HFC", "upgrade": "NULL_NA"}}, {"type": "Feature", "geometry": {"type": "Point", "coordinates": [151.01174913, -33.7356594]}, "properties": {"name": "1 CRANE ROAD CASTLE HILL 2154", "locID": "LOC000065487210", "tech": "HFC", "upgrade": "NULL_NA"}}, {"type": "Feature", "geometry": {"type": "Point", "coordinates": [150.97720532, -33.72207463]}, "properties": {"name": "1 CUBBY CLOSE CASTLE HILL 2154", "locID": "LOC000005422242", "tech": "HFC", "upgrade": "NULL_NA"}}, {"type": "Feature", "geometry": {"type": "Point", "coordinates": [151.02196113, -33.73101636]}, "properties": {"name": "1 CULLEN CRESCENT CASTLE HILL 2154", "locID": "LOC000064903353", "tech": "FTTN", "upgrade": "NULL_NA"}}, {"type": "Feature", "geometry": {"type": "Point", "coordinates": [150.99687553, -33.72024933]}, "properties": {"name": "1 CUMBERLAND AVENUE CASTLE HILL 2154", "locID": "LOC000171442645", "tech": "HFC", "upgrade": "NULL_NA"}}, {"type": "Feature", "geometry": {"type": "Point", "coordinates": [150.99974751, -33.74733509]}, "properties": {"name": "1 CYNTHIA AVENUE CASTLE HILL 2154", "locID": "LOC000026433140", "tech": "HFC", "upgrade": "NULL_NA"}}, {"type": "Feature", "geometry": {"type": "Point", "coordinates": [150.98824093, -33.7102268]}, "properties": {"name": "1 DAMSEL COURT CASTLE HILL 2154", "locID": "LOC000004649420", "tech": "HFC", "upgrade": "NULL_NA"}}, {"type": "Feature", "geometry": {"type": "Point", "coordinates": [151.01471089, -33.73311562]}, "properties": {"name": "1 DAN CRESCENT CASTLE HILL 2154", "locID": "LOC000051353438", "tech": "HFC", "upgrade": "NULL_NA"}}, {"type": "Feature", "geometry": {"type": "Point", "coordinates": [150.9879257, -33.7403894]}, "properties": {"name": "1 DANA CLOSE CASTLE HILL 2154", "locID": "LOC000054446842", "tech": "HFC", "upgrade": "NULL_NA"}}, {"type": "Feature", "geometry": {"type": "Point", "coordinates": [150.99362122, -33.74494852]}, "properties": {"name": "1 DAPHNE AVENUE CASTLE HILL 2154", "locID": "LOC000049377560", "tech": "FTTC", "upgrade": "FTTP_SA"}}, {"type": "Feature", "geometry": {"type": "Point", "coordinates": [151.02735342, -33.71558639]}, "properties": {"name": "1 DAVID ROAD CASTLE HILL 2154", "locID": "LOC000049707401", "tech": "FTTC", "upgrade": "FTTP_SA"}}, {"type": "Feature", "geometry": {"type": "Point", "coordinates": [150.9939928, -33.73111818]}, "properties": {"name": "1 DAWES AVENUE CASTLE HILL 2154", "locID": "LOC000074894442", "tech": "HFC", "upgrade": "NULL_NA"}}, {"type": "Feature", "geometry": {"type": "Point", "coordinates": [150.96798199, -33.72022631]}, "properties": {"name": "1 DENBIGH COURT CASTLE HILL 2154", "locID": "LOC000053173146", "tech": "FTTN", "upgrade": "FTTP_SA"}}, {"type": "Feature", "geometry": {"type": "Point", "coordinates": [150.99633037, -33.74805565]}, "properties": {"name": "1 DERWENT PLACE CASTLE HILL 2154", "locID": "LOC000078683081", "tech": "HFC", "upgrade": "NULL_NA"}}, {"type": "Feature", "geometry": {"type": "Point", "coordinates": [151.00357972, -33.72223702]}, "properties": {"name": "1 DEWHURST AVENUE CASTLE HILL 2154", "locID": "LOC000101397790", "tech": "HFC", "upgrade": "NULL_NA"}}, {"type": "Feature", "geometry": {"type": "Point", "coordinates": [151.02782667, -33.72137209]}, "properties": {"name": "1 DINMORE PLACE CASTLE HILL 2154", "locID": "LOC000032990723", "tech": "HFC", "upgrade": "NULL_NA"}}, {"type": "Feature", "geometry": {"type": "Point", "coordinates": [151.02214702, -33.72956222]}, "properties": {"name": "1 DOROTHY MOWLL COURT CASTLE HILL 2154", "locID": "LOC000164437540", "tech": "FTTN", "upgrade": "NULL_NA"}}, {"type": "Feature", "geometry": {"type": "Point", "coordinates": [150.98654643, -33.70829231]}, "properties": {"name": "1 DRAWBRIDGE PLACE CASTLE HILL 2154", "locID": "LOC000075432135", "tech": "HFC", "upgrade": "NULL_NA"}}, {"type": "Feature", "geometry": {"type": "Point", "coordinates": [150.99800707, -33.7494616]}, "properties": {"name": "1 DRAYTON AVENUE CASTLE HILL 2154", "locID": "LOC000171259398", "tech": "HFC", "upgrade": "NULL_NA"}}, {"type": "Feature", "geometry": {"type": "Point", "coordinates": [150.9871249, -33.73680732]}, "properties": {"name": "1 DRESDEN AVENUE CASTLE HILL 2154", "locID": "LOC000072687428", "tech": "HFC", "upgrade": "NULL_NA"}}, {"type": "Feature", "geometry": {"type": "Point", "coordinates": [151.02843504, -33.7178352]}, "properties": {"name": "1 DUNLEY PLACE CASTLE HILL 2154", "locID": "LOC000017956145", "tech": "FTTC", "upgrade": "FTTP_SA"}}, {"type": "Feature", "geometry": {"type": "Point", "coordinates": [151.02376093, -33.73203059]}, "properties": {"name": "1 EDGEWOOD AVENUE CASTLE HILL 2154", "locID": "LOC000004082337", "tech": "FTTN", "upgrade": "NULL_NA"}}, {"type": "Feature", "geometry": {"type": "Point", "coordinates": [151.02991368, -33.72044862]}, "properties": {"name": "1 ELABANA CRESCENT CASTLE HILL 2154", "locID": "LOC000038079805", "tech": "FTTC", "upgrade": "FTTP_SA"}}, {"type": "Feature", "geometry": {"type": "Point", "coordinates": [150.98918709, -33.74069049]}, "properties": {"name": "1 ELBERTA AVENUE CASTLE HILL 2154", "locID": "LOC000080871056", "tech": "HFC", "upgrade": "NULL_NA"}}, {"type": "Feature", "geometry": {"type": "Point", "coordinates": [151.0208324, -33.73003379]}, "properties": {"name": "1 ELIZABETH HAKE CLOSE CASTLE HILL 2154", "locID": "LOC000014084719", "tech": "FTTN", "upgrade": "NULL_NA"}}, {"type": "Feature", "geometry": {"type": "Point", "coordinates": [150.997913, -33.74524122]}, "properties": {"name": "1 ENGLISH AVENUE CASTLE HILL 2154", "locID": "LOC000052466778", "tech": "HFC", "upgrade": "NULL_NA"}}, {"type": "Feature", "geometry": {"type": "Point", "coordinates": [150.97714391, -33.71642192]}, "properties": {"name": "1 ERIC COOPER DRIVE CASTLE HILL 2154", "locID": "LOC000026354986", "tech": "HFC", "upgrade": "NULL_NA"}}, {"type": "Feature", "geometry": {"type": "Point", "coordinates": [150.99778563, -33.72395143]}, "properties": {"name": "1 ESSEX AVENUE CASTLE HILL 2154", "locID": "LOC000027128443", "tech": "HFC", "upgrade": "NULL_NA"}}, {"type": "Feature", "geometry": {"type": "Point", "coordinates": [150.98485572, -33.73997881]}, "properties": {"name": "1 EXCELSIOR WAY CASTLE HILL 2154", "locID": "LOC000023810086", "tech": "HFC", "upgrade": "NULL_NA"}}, {"type": "Feature", "geometry": {"type": "Point", "coordinates": [150.98741283, -33.73338867]}, "properties": {"name": "1 FACER COURT CASTLE HILL 2154", "locID": "LOC000038072077", "tech": "HFC", "upgrade": "NULL_NA"}}, {"type": "Feature", "geometry": {"type": "Point", "coordinates": [151.02565583, -33.72740691]}, "properties": {"name": "1 FARM CLOSE CASTLE HILL 2154", "locID": "LOC000086494536", "tech": "FTTN", "upgrade": "NULL_NA"}}, {"type": "Feature", "geometry": {"type": "Point", "coordinates": [151.01347668, -33.74677372]}, "properties": {"name": "1 FEATHERWOOD WAY CASTLE HILL 2154", "locID": "LOC000105490570", "tech": "HFC", "upgrade": "NULL_NA"}}, {"type": "Feature", "geometry": {"type": "Point", "coordinates": [151.02089794, -33.74032025]}, "properties": {"name": "1 FERNGREEN WAY CASTLE HILL 2154", "locID": "LOC000053658532", "tech": "HFC", "upgrade": "NULL_NA"}}, {"type": "Feature", "geometry": {"type": "Point", "coordinates": [150.99196153, -33.73778697]}, "properties": {"name": "1 FIONA AVENUE CASTLE HILL 2154", "locID": "LOC000002464186", "tech": "HFC", "upgrade": "NULL_NA"}}, {"type": "Feature", "geometry": {"type": "Point", "coordinates": [151.01461348, -33.72585047]}, "properties": {"name": "1 FIRST FARM DRIVE CASTLE HILL 2154", "locID": "LOC000009849046", "tech": "HFC", "upgrade": "NULL_NA"}}, {"type": "Feature", "geometry": {"type": "Point", "coordinates": [151.02396615, -33.72392635]}, "properties": {"name": "1 FOLEY PLACE CASTLE HILL 2154", "locID": "LOC000014054625", "tech": "HFC", "upgrade": "NULL_NA"}}, {"type": "Feature", "geometry": {"type": "Point", "coordinates": [151.02011121, -33.7363781]}, "properties": {"name": "1 FOREST KNOLL CASTLE HILL 2154", "locID": "LOC000100384074", "tech": "HFC", "upgrade": "NULL_NA"}}, {"type": "Feature", "geometry": {"type": "Point", "coordinates": [151.00217109, -33.73741026]}, "properties": {"name": "1 FRANCIS STREET CASTLE HILL 2154", "locID": "LOC000018803342", "tech": "HFC", "upgrade": "NULL_NA"}}, {"type": "Feature", "geometry": {"type": "Point", "coordinates": [150.996022, -33.73861839]}, "properties": {"name": "1 FREEMAN AVENUE CASTLE HILL 2154", "locID": "LOC000043489792", "tech": "HFC", "upgrade": "NULL_NA"}}, {"type": "Feature", "geometry": {"type": "Point", "coordinates": [151.01788741, -33.73922098]}, "properties": {"name": "1 GAIWOOD PLACE CASTLE HILL 2154", "locID": "LOC000067268803", "tech": "HFC", "upgrade": "NULL_NA"}}, {"type": "Feature", "geometry": {"type": "Point", "coordinates": [150.99161353, -33.71440247]}, "properties": {"name": "1 GALAHAD CRESCENT CASTLE HILL 2154", "locID": "LOC000077219149", "tech": "HFC", "upgrade": "NULL_NA"}}, {"type": "Feature", "geometry": {"type": "Point", "coordinates": [151.01968844, -33.74019322]}, "properties": {"name": "1 GARDENIA PLACE CASTLE HILL 2154", "locID": "LOC000063134699", "tech": "HFC", "upgrade": "NULL_NA"}}, {"type": "Feature", "geometry": {"type": "Point", "coordinates": [151.0072985, -33.72701089]}, "properties": {"name": "1 GAY STREET CASTLE HILL 2154", "locID": "LOC000153519219", "tech": "NULL", "upgrade": "NULL_NA"}}, {"type": "Feature", "geometry": {"type": "Point", "coordinates": [150.9983564, -33.74917084]}, "properties": {"name": "1 GEORGE MOBBS DRIVE CASTLE HILL 2154", "locID": "LOC000032181260", "tech": "HFC", "upgrade": "NULL_NA"}}, {"type": "Feature", "geometry": {"type": "Point", "coordinates": [150.98641507, -33.72389604]}, "properties": {"name": "1 GILBERT ROAD CASTLE HILL 2154", "locID": "LOC000052583632", "tech": "HFC", "upgrade": "NULL_NA"}}, {"type": "Feature", "geometry": {"type": "Point", "coordinates": [151.00808464, -33.72659695]}, "properties": {"name": "1 GILHAM STREET CASTLE HILL 2154", "locID": "LOC000025112815", "tech": "HFC", "upgrade": "NULL_NA"}}, {"type": "Feature", "geometry": {"type": "Point", "coordinates": [150.97874629, -33.71940168]}, "properties": {"name": "1 GINDURRA AVENUE CASTLE HILL 2154", "locID": "LOC000029092997", "tech": "HFC", "upgrade": "NULL_NA"}}, {"type": "Feature", "geometry": {"type": "Point", "coordinates": [150.97684787, -33.7333031]}, "properties": {"name": "1 GLADSTONE ROAD CASTLE HILL 2154", "locID": "LOC000164390351", "tech": "FTTN", "upgrade": "NULL_NA"}}, {"type": "Feature", "geometry": {"type": "Point", "coordinates": [150.96895469, -33.72138001]}, "properties": {"name": "1 GLAMIS PLACE CASTLE HILL 2154", "locID": "LOC000044039282", "tech": "FTTN", "upgrade": "FTTP_SA"}}, {"type": "Feature", "geometry": {"type": "Point", "coordinates": [151.02712316, -33.72989109]}, "properties": {"name": "1 GLENOWEN WAY CASTLE HILL 2154", "locID": "LOC000110378531", "tech": "FTTN", "upgrade": "NULL_NA"}}, {"type": "Feature", "geometry": {"type": "Point", "coordinates": [151.01572403, -33.73665828]}, "properties": {"name": "1 GLENWOOD WAY CASTLE HILL 2154", "locID": "LOC000017347755", "tech": "HFC", "upgrade": "NULL_NA"}}, {"type": "Feature", "geometry": {"type": "Point", "coordinates": [150.9981426, -33.71625688]}, "properties": {"name": "1 GOORAWAY DRIVE CASTLE HILL 2154", "locID": "LOC000047835516", "tech": "HFC", "upgrade": "NULL_NA"}}, {"type": "Feature", "geometry": {"type": "Point", "coordinates": [151.01425313, -33.72142025]}, "properties": {"name": "1 GOVERNMENT FARM CRESCENT CASTLE HILL 2154", "locID": "LOC000080044914", "tech": "FTTN", "upgrade": "FTTP_SA"}}, {"type": "Feature", "geometry": {"type": "Point", "coordinates": [151.02527085, -33.72691257]}, "properties": {"name": "1 GRANARY PLACE CASTLE HILL 2154", "locID": "LOC000100322025", "tech": "FTTN", "upgrade": "NULL_NA"}}, {"type": "Feature", "geometry": {"type": "Point", "coordinates": [151.00189539, -33.72343178]}, "properties": {"name": "1 GREENHILL CLOSE CASTLE HILL 2154", "locID": "LOC000021293708", "tech": "HFC", "upgrade": "NULL_NA"}}, {"type": "Feature", "geometry": {"type": "Point", "coordinates": [151.00606559, -33.74699901]}, "properties": {"name": "1 GREENVALE PLACE CASTLE HILL 2154", "locID": "LOC000007204885", "tech": "HFC", "upgrade": "NULL_NA"}}, {"type": "Feature", "geometry": {"type": "Point", "coordinates": [151.01951494, -33.73058282]}, "properties": {"name": "1 GREGORY CLOSE CASTLE HILL 2154", "locID": "LOC000115326621", "tech": "HFC", "upgrade": "NULL_NA"}}, {"type": "Feature", "geometry": {"type": "Point", "coordinates": [151.02586321, -33.72922919]}, "properties": {"name": "1 GREVILLEA COURT CASTLE HILL 2154", "locID": "LOC000164213353", "tech": "FTTN", "upgrade": "NULL_NA"}}, {"type": "Feature", "geometry": {"type": "Point", "coordinates": [150.98828843, -33.70842449]}, "properties": {"name": "1 GUINEVIERE COURT CASTLE HILL 2154", "locID": "LOC000078960917", "tech": "HFC", "upgrade": "NULL_NA"}}, {"type": "Feature", "geometry": {"type": "Point", "coordinates": [151.00021564, -33.74351698]}, "properties": {"name": "1 HAMPTON CLOSE CASTLE HILL 2154", "locID": "LOC000014571052", "tech": "HFC", "upgrade": "NULL_NA"}}, {"type": "Feature", "geometry": {"type": "Point", "coordinates": [151.02509733, -33.72716339]}, "properties": {"name": "1 HARVEST AVENUE CASTLE HILL 2154", "locID": "LOC000027320426", "tech": "FTTN", "upgrade": "NULL_NA"}}, {"type": "Feature", "geometry": {"type": "Point", "coordinates": [151.00994817, -33.72763657]}, "properties": {"name": "1 HEATHERBRAE PLACE CASTLE HILL 2154", "locID": "LOC000014068773", "tech": "HFC", "upgrade": "NULL_NA"}}, {"type": "Feature", "geometry": {"type": "Point", "coordinates": [151.00317814, -33.74048044]}, "properties": {"name": "1 HELEN COURT CASTLE HILL 2154", "locID": "LOC000024826961", "tech": "HFC", "upgrade": "NULL_NA"}}, {"type": "Feature", "geometry": {"type": "Point", "coordinates": [150.97624339, -33.71710517]}, "properties": {"name": "1 HELISSIO PLACE CASTLE HILL 2154", "locID": "LOC000035188652", "tech": "HFC", "upgrade": "NULL_NA"}}, {"type": "Feature", "geometry": {"type": "Point", "coordinates": [151.01297822, -33.74400128]}, "properties": {"name": "1 HENLEY CLOSE CASTLE HILL 2154", "locID": "LOC000080132883", "tech": "HFC", "upgrade": "NULL_NA"}}, {"type": "Feature", "geometry": {"type": "Point", "coordinates": [151.02521545, -33.72690382]}, "properties": {"name": "1 HERITAGE CLOSE CASTLE HILL 2154", "locID": "LOC000066631774", "tech": "FTTN", "upgrade": "NULL_NA"}}, {"type": "Feature", "geometry": {"type": "Point", "coordinates": [151.01074839, -33.74582504]}, "properties": {"name": "1 HERITAGE COURT CASTLE HILL 2154", "locID": "LOC000066431251", "tech": "HFC", "upgrade": "NULL_NA"}}, {"type": "Feature", "geometry": {"type": "Point", "coordinates": [151.01493009, -33.72313163]}, "properties": {"name": "1 HERITAGE PARK DRIVE CASTLE HILL 2154", "locID": "LOC000005587730", "tech": "FTTN", "upgrade": "FTTP_SA"}}, {"type": "Feature", "geometry": {"type": "Point", "coordinates": [151.0087554, -33.71895823]}, "properties": {"name": "1 HERON COURT CASTLE HILL 2154", "locID": "LOC000093815137", "tech": "HFC", "upgrade": "NULL_NA"}}, {"type": "Feature", "geometry": {"type": "Point", "coordinates": [151.0236264, -33.71575143]}, "properties": {"name": "1 HIGHBROOK PLACE CASTLE HILL 2154", "locID": "LOC000068077939", "tech": "FTTN", "upgrade": "FTTP_SA"}}, {"type": "Feature", "geometry": {"type": "Point", "coordinates": [151.02038881, -33.71881077]}, "properties": {"name": "1 HIGHCLERE PLACE CASTLE HILL 2154", "locID": "LOC000092585047", "tech": "HFC", "upgrade": "NULL_NA"}}, {"type": "Feature", "geometry": {"type": "Point", "coordinates": [151.03037776, -33.72441944]}, "properties": {"name": "1 HILLGATE PLACE CASTLE HILL 2154", "locID": "LOC000057229101", "tech": "HFC", "upgrade": "NULL_NA"}}, {"type": "Feature", "geometry": {"type": "Point", "coordinates": [151.02314227, -33.72912084]}, "properties": {"name": "1 HILLIARD DRIVE CASTLE HILL 2154", "locID": "LOC000163712470", "tech": "FTTN", "upgrade": "NULL_NA"}}, {"type": "Feature", "geometry": {"type": "Point", "coordinates": [151.026137, -33.71455416]}, "properties": {"name": "1 HILLOAK COURT CASTLE HILL 2154", "locID": "LOC000054608827", "tech": "FTTN", "upgrade": "FTTP_SA"}}, {"type": "Feature", "geometry": {"type": "Point", "coordinates": [150.97729891, -33.72293675]}, "properties": {"name": "1 HILLTOP COURT CASTLE HILL 2154", "locID": "LOC000109058202", "tech": "HFC", "upgrade": "NULL_NA"}}, {"type": "Feature", "geometry": {"type": "Point", "coordinates": [151.00664186, -33.74593529]}, "properties": {"name": "1 HOWARD PLACE CASTLE HILL 2154", "locID": "LOC000107290635", "tech": "HFC", "upgrade": "NULL_NA"}}, {"type": "Feature", "geometry": {"type": "Point", "coordinates": [150.99000941, -33.73002459]}, "properties": {"name": "1 HUGHES AVENUE CASTLE HILL 2154", "locID": "LOC000097044443", "tech": "HFC", "upgrade": "NULL_NA"}}, {"type": "Feature", "geometry": {"type": "Point", "coordinates": [151.00581136, -33.72187312]}, "properties": {"name": "1 HUNTER PLACE CASTLE HILL 2154", "locID": "LOC000068156316", "tech": "HFC", "upgrade": "NULL_NA"}}, {"type": "Feature", "geometry": {"type": "Point", "coordinates": [151.01531048, -33.71566957]}, "properties": {"name": "1 HUNTINGDALE CIRCLE CASTLE HILL 2154", "locID": "LOC000088053957", "tech": "FTTN", "upgrade": "FTTP_SA"}}, {"type": "Feature", "geometry": {"type": "Point", "coordinates": [151.01579897, -33.73489592]}, "properties": {"name": "1 ILLYARIE PLACE CASTLE HILL 2154", "locID": "LOC000080970561", "tech": "HFC", "upgrade": "NULL_NA"}}, {"type": "Feature", "geometry": {"type": "Point", "coordinates": [150.98955106, -33.73396237]}, "properties": {"name": "1 JAMES PLACE CASTLE HILL 2154", "locID": "LOC000120146894", "tech": "HFC", "upgrade": "NULL_NA"}}, {"type": "Feature", "geometry": {"type": "Point", "coordinates": [151.01407328, -33.73955142]}, "properties": {"name": "1 JARRAH PLACE CASTLE HILL 2154", "locID": "LOC000078830692", "tech": "HFC", "upgrade": "NULL_NA"}}, {"type": "Feature", "geometry": {"type": "Point", "coordinates": [151.01783506, -33.73726766]}, "properties": {"name": "1 JASMINE PLACE CASTLE HILL 2154", "locID": "LOC000112553418", "tech": "HFC", "upgrade": "NULL_NA"}}, {"type": "Feature", "geometry": {"type": "Point", "coordinates": [151.01208713, -33.74456126]}, "properties": {"name": "1 JORDANA PLACE CASTLE HILL 2154", "locID": "LOC000028695468", "tech": "HFC", "upgrade": "NULL_NA"}}, {"type": "Feature", "geometry": {"type": "Point", "coordinates": [150.9780815, -33.71498284]}, "properties": {"name": "1 JULIA GROVE CASTLE HILL 2154", "locID": "LOC000010550476", "tech": "HFC", "upgrade": "NULL_NA"}}, {"type": "Feature", "geometry": {"type": "Point", "coordinates": [151.00560818, -33.7394574]}, "properties": {"name": "1 KATHERINE PLACE CASTLE HILL 2154", "locID": "LOC000110032120", "tech": "HFC", "upgrade": "NULL_NA"}}, {"type": "Feature", "geometry": {"type": "Point", "coordinates": [150.99081891, -33.72512555]}, "properties": {"name": "1 KATHLEEN AVENUE CASTLE HILL 2154", "locID": "LOC000076330143", "tech": "HFC", "upgrade": "NULL_NA"}}, {"type": "Feature", "geometry": {"type": "Point", "coordinates": [151.0225307, -33.73151501]}, "properties": {"name": "1 KAURI COURT CASTLE HILL 2154", "locID": "LOC000040144417", "tech": "FTTN", "upgrade": "NULL_NA"}}, {"type": "Feature", "geometry": {"type": "Point", "coordinates": [150.99346537, -33.73968717]}, "properties": {"name": "1 KELBRAE CLOSE CASTLE HILL 2154", "locID": "LOC000048494243", "tech": "HFC", "upgrade": "NULL_NA"}}, {"type": "Feature", "geometry": {"type": "Point", "coordinates": [151.00128337, -33.73158488]}, "properties": {"name": "1 KENTWELL AVENUE CASTLE HILL 2154", "locID": "LOC000019680349", "tech": "HFC", "upgrade": "NULL_NA"}}, {"type": "Feature", "geometry": {"type": "Point", "coordinates": [151.02113575, -33.73127308]}, "properties": {"name": "1 KERLE CRESCENT CASTLE HILL 2154", "locID": "LOC000031779946", "tech": "FTTN", "upgrade": "NULL_NA"}}, {"type": "Feature", "geometry": {"type": "Point", "coordinates": [150.9995078, -33.73899457]}, "properties": {"name": "1 KERRS ROAD CASTLE HILL 2154", "locID": "LOC000075879079", "tech": "HFC", "upgrade": "NULL_NA"}}, {"type": "Feature", "geometry": {"type": "Point", "coordinates": [150.99731513, -33.74897441]}, "properties": {"name": "1 KESWICK AVENUE CASTLE HILL 2154", "locID": "LOC000156326092", "tech": "HFC", "upgrade": "NULL_NA"}}, {"type": "Feature", "geometry": {"type": "Point", "coordinates": [151.02154517, -33.73072365]}, "properties": {"name": "1 KIDNER CLOSE CASTLE HILL 2154", "locID": "LOC000077451728", "tech": "FTTN", "upgrade": "NULL_NA"}}, {"type": "Feature", "geometry": {"type": "Point", "coordinates": [151.02152287, -33.71702919]}, "properties": {"name": "1 KINGSCOTT PLACE CASTLE HILL 2154", "locID": "LOC000014189626", "tech": "FTTN", "upgrade": "FTTP_SA"}}, {"type": "Feature", "geometry": {"type": "Point", "coordinates": [151.00812961, -33.71535939]}, "properties": {"name": "1 KINGUSSIE AVENUE CASTLE HILL 2154", "locID": "LOC000105264723", "tech": "HFC", "upgrade": "NULL_NA"}}, {"type": "Feature", "geometry": {"type": "Point", "coordinates": [150.96604774, -33.72105413]}, "properties": {"name": "1 KIRKWALL AVENUE CASTLE HILL 2154", "locID": "LOC000057205757", "tech": "FTTN", "upgrade": "FTTP_SA"}}, {"type": "Feature", "geometry": {"type": "Point", "coordinates": [151.0155794, -33.7436731]}, "properties": {"name": "1 KIRRILY WAY CASTLE HILL 2154", "locID": "LOC000105416495", "tech": "HFC", "upgrade": "NULL_NA"}}, {"type": "Feature", "geometry": {"type": "Point", "coordinates": [151.00706639, -33.74516227]}, "properties": {"name": "1 KNIGHT PLACE CASTLE HILL 2154", "locID": "LOC000008151061", "tech": "HFC", "upgrade": "NULL_NA"}}, {"type": "Feature", "geometry": {"type": "Point", "coordinates": [150.98811635, -33.71229025]}, "properties": {"name": "1 KNIGHTSBRIDGE PLACE CASTLE HILL 2154", "locID": "LOC000096900286", "tech": "HFC", "upgrade": "NULL_NA"}}, {"type": "Feature", "geometry": {"type": "Point", "coordinates": [151.00062902, -33.71764561]}, "properties": {"name": "1 KULLAROO AVENUE CASTLE HILL 2154", "locID": "LOC000010755250", "tech": "HFC", "upgrade": "NULL_NA"}}, {"type": "Feature", "geometry": {"type": "Point", "coordinates": [151.00389286, -33.72463436]}, "properties": {"name": "1 KYWONG AVENUE CASTLE HILL 2154", "locID": "LOC000098654543", "tech": "HFC", "upgrade": "NULL_NA"}}, {"type": "Feature", "geometry": {"type": "Point", "coordinates": [150.97842028, -33.71286522]}, "properties": {"name": "1 LA VISTA GROVE CASTLE HILL 2154", "locID": "LOC000092354541", "tech": "HFC", "upgrade": "NULL_NA"}}, {"type": "Feature", "geometry": {"type": "Point", "coordinates": [151.01699613, -33.74129828]}, "properties": {"name": "1 LACEBARK WAY CASTLE HILL 2154", "locID": "LOC000008910895", "tech": "HFC", "upgrade": "NULL_NA"}}, {"type": "Feature", "geometry": {"type": "Point", "coordinates": [151.00918173, -33.71714123]}, "properties": {"name": "1 LANARK COURT CASTLE HILL 2154", "locID": "LOC000044088921", "tech": "HFC", "upgrade": "NULL_NA"}}, {"type": "Feature", "geometry": {"type": "Point", "coordinates": [150.98706302, -33.70975073]}, "properties": {"name": "1 LANCELOT COURT CASTLE HILL 2154", "locID": "LOC000043949936", "tech": "HFC", "upgrade": "NULL_NA"}}, {"type": "Feature", "geometry": {"type": "Point", "coordinates": [151.02421363, -33.72774231]}, "properties": {"name": "1 LANGSHAW CIRCUIT CASTLE HILL 2154", "locID": "LOC000174936231", "tech": "FTTN", "upgrade": "NULL_NA"}}, {"type": "Feature", "geometry": {"type": "Point", "coordinates": [151.00183017, -33.72896173]}, "properties": {"name": "1 LAROOL CRESCENT CASTLE HILL 2154", "locID": "LOC000045848119", "tech": "HFC", "upgrade": "NULL_NA"}}, {"type": "Feature", "geometry": {"type": "Point", "coordinates": [151.00025038, -33.72046549]}, "properties": {"name": "1 LAWSON PLACE CASTLE HILL 2154", "locID": "LOC000012364035", "tech": "HFC", "upgrade": "NULL_NA"}}, {"type": "Feature", "geometry": {"type": "Point", "coordinates": [151.01342932, -33.74575996]}, "properties": {"name": "1 LEMONWOOD PLACE CASTLE HILL 2154", "locID": "LOC000001529410", "tech": "HFC", "upgrade": "NULL_NA"}}, {"type": "Feature", "geometry": {"type": "Point", "coordinates": [151.00395222, -33.74416344]}, "properties": {"name": "1 LEWIS COURT CASTLE HILL 2154", "locID": "LOC000035123035", "tech": "HFC", "upgrade": "NULL_NA"}}, {"type": "Feature", "geometry": {"type": "Point", "coordinates": [151.00257991, -33.73749756]}, "properties": {"name": "1 LINCOLN PLACE CASTLE HILL 2154", "locID": "LOC000055872640", "tech": "HFC", "upgrade": "NULL_NA"}}, {"type": "Feature", "geometry": {"type": "Point", "coordinates": [150.99083121, -33.71833134]}, "properties": {"name": "1 LISA CRESCENT CASTLE HILL 2154", "locID": "LOC000037655472", "tech": "HFC", "upgrade": "NULL_NA"}}, {"type": "Feature", "geometry": {"type": "Point", "coordinates": [150.99982597, -33.72209516]}, "properties": {"name": "1 LOCKHART AVENUE CASTLE HILL 2154", "locID": "LOC000099580016", "tech": "HFC", "upgrade": "NULL_NA"}}, {"type": "Feature", "geometry": {"type": "Point", "coordinates": [150.96933791, -33.71799473]}, "properties": {"name": "1 LODGEWORTH PLACE CASTLE HILL 2154", "locID": "LOC000005521950", "tech": "FTTN", "upgrade": "FTTP_SA"}}, {"type": "Feature", "geometry": {"type": "Point", "coordinates": [151.01117092, -33.71663448]}, "properties": {"name": "1 LOMOND PLACE CASTLE HILL 2154", "locID": "LOC000035561302", "tech": "HFC", "upgrade": "NULL_NA"}}, {"type": "Feature", "geometry": {"type": "Point", "coordinates": [150.98083004, -33.71213269]}, "properties": {"name": "1 LONGLEY PLACE CASTLE HILL 2154", "locID": "LOC000068475901", "tech": "HFC", "upgrade": "NULL_NA"}}, {"type": "Feature", "geometry": {"type": "Point", "coordinates": [151.00925127, -33.73556063]}, "properties": {"name": "1 LUDLOW ROAD CASTLE HILL 2154", "locID": "LOC000003171843", "tech": "HFC", "upgrade": "NULL_NA"}}, {"type": "Feature", "geometry": {"type": "Point", "coordinates": [151.02846258, -33.72279515]}, "properties": {"name": "1 LYDHAM PLACE CASTLE HILL 2154", "locID": "LOC000044950921", "tech": "HFC", "upgrade": "NULL_NA"}}, {"type": "Feature", "geometry": {"type": "Point", "coordinates": [150.99426952, -33.72434675]}, "properties": {"name": "1 LYGON PLACE CASTLE HILL 2154", "locID": "LOC000041575479", "tech": "HFC", "upgrade": "NULL_NA"}}, {"type": "Feature", "geometry": {"type": "Point", "coordinates": [150.97546433, -33.72084258]}, "properties": {"name": "1 LYNBROOK COURT CASTLE HILL 2154", "locID": "LOC000074714698", "tech": "HFC", "upgrade": "NULL_NA"}}, {"type": "Feature", "geometry": {"type": "Point", "coordinates": [151.00872964, -33.73474599]}, "properties": {"name": "1 LYNDEL PLACE CASTLE HILL 2154", "locID": "LOC000068977937", "tech": "HFC", "upgrade": "NULL_NA"}}, {"type": "Feature", "geometry": {"type": "Point", "coordinates": [150.99571862, -33.71891768]}, "properties": {"name": "1 LYNWOOD PLACE CASTLE HILL 2154", "locID": "LOC000090635603", "tech": "HFC", "upgrade": "NULL_NA"}}, {"type": "Feature", "geometry": {"type": "Point", "coordinates": [151.02499036, -33.71508689]}, "properties": {"name": "1 MAHOGANY COURT CASTLE HILL 2154", "locID": "LOC000088102819", "tech": "FTTN", "upgrade": "FTTP_SA"}}, {"type": "Feature", "geometry": {"type": "Point", "coordinates": [151.01952993, -33.73034192]}, "properties": {"name": "1 MALVERN PLACE CASTLE HILL 2154", "locID": "LOC000181808189", "tech": "HFC", "upgrade": "NULL_NA"}}, {"type": "Feature", "geometry": {"type": "Point", "coordinates": [150.9873609, -33.72782331]}, "properties": {"name": "1 MANDALA PARADE CASTLE HILL 2154", "locID": "LOC000192382030", "tech": "NULL", "upgrade": "NULL_NA"}}, {"type": "Feature", "geometry": {"type": "Point", "coordinates": [150.99065912, -33.73596579]}, "properties": {"name": "1 MARGOT PLACE CASTLE HILL 2154", "locID": "LOC000033011481", "tech": "HFC", "upgrade": "NULL_NA"}}, {"type": "Feature", "geometry": {"type": "Point", "coordinates": [150.99958089, -33.73751892]}, "properties": {"name": "1 MARIE STREET CASTLE HILL 2154", "locID": "LOC000053607759", "tech": "HFC", "upgrade": "NULL_NA"}}, {"type": "Feature", "geometry": {"type": "Point", "coordinates": [150.98113274, -33.72251304]}, "properties": {"name": "1 MARRIOTT GROVE CASTLE HILL 2154", "locID": "LOC000033410617", "tech": "HFC", "upgrade": "NULL_NA"}}, {"type": "Feature", "geometry": {"type": "Point", "coordinates": [151.01332436, -33.74125509]}, "properties": {"name": "1 MARY IRENE PLACE CASTLE HILL 2154", "locID": "LOC000097853605", "tech": "HFC", "upgrade": "NULL_NA"}}, {"type": "Feature", "geometry": {"type": "Point", "coordinates": [151.02037962, -33.73106261]}, "properties": {"name": "1 MARY PLACE CASTLE HILL 2154", "locID": "LOC000074367736", "tech": "HFC", "upgrade": "NULL_NA"}}, {"type": "Feature", "geometry": {"type": "Point", "coordinates": [151.0134242, -33.73858711]}, "properties": {"name": "1 MAYBUSH WAY CASTLE HILL 2154", "locID": "LOC000093581700", "tech": "HFC", "upgrade": "NULL_NA"}}, {"type": "Feature", "geometry": {"type": "Point", "coordinates": [151.02151935, -33.73141458]}, "properties": {"name": "1 MEADOWS PLACE CASTLE HILL 2154", "locID": "LOC000074628595", "tech": "FTTN", "upgrade": "NULL_NA"}}, {"type": "Feature", "geometry": {"type": "Point", "coordinates": [151.02008217, -33.73208038]}, "properties": {"name": "1 MELIA COURT CASTLE HILL 2154", "locID": "LOC000006371741", "tech": "HFC", "upgrade": "NULL_NA"}}, {"type": "Feature", "geometry": {"type": "Point", "coordinates": [150.97070593, -33.72229811]}, "properties": {"name": "1 MELVEY PLACE CASTLE HILL 2154", "locID": "LOC000062119669", "tech": "FTTP", "upgrade": "NULL_NA"}}, {"type": "Feature", "geometry": {"type": "Point", "coordinates": [151.00863579, -33.73314964]}, "properties": {"name": "1 MERCER STREET CASTLE HILL 2154", "locID": "LOC000065248209", "tech": "HFC", "upgrade": "NULL_NA"}}, {"type": "Feature", "geometry": {"type": "Point", "coordinates": [150.99108534, -33.70947844]}, "properties": {"name": "1 MERLIN COURT CASTLE HILL 2154", "locID": "LOC000096726651", "tech": "HFC", "upgrade": "NULL_NA"}}, {"type": "Feature", "geometry": {"type": "Point", "coordinates": [150.99092518, -33.74252506]}, "properties": {"name": "1 MERRILONG STREET CASTLE HILL 2154", "locID": "LOC000049654773", "tech": "HFC", "upgrade": "NULL_NA"}}, {"type": "Feature", "geometry": {"type": "Point", "coordinates": [150.98794482, -33.72811354]}, "properties": {"name": "1 MIDDLETON AVENUE CASTLE HILL 2154", "locID": "LOC000076688358", "tech": "HFC", "upgrade": "NULL_NA"}}, {"type": "Feature", "geometry": {"type": "Point", "coordinates": [151.01985253, -33.73049141]}, "properties": {"name": "1 MILNE COURT CASTLE HILL 2154", "locID": "LOC000053450726", "tech": "HFC", "upgrade": "NULL_NA"}}, {"type": "Feature", "geometry": {"type": "Point", "coordinates": [150.99171868, -33.73906262]}, "properties": {"name": "1 MORNINGTON AVENUE CASTLE HILL 2154", "locID": "LOC000025942202", "tech": "HFC", "upgrade": "NULL_NA"}}, {"type": "Feature", "geometry": {"type": "Point", "coordinates": [151.02384495, -33.71355942]}, "properties": {"name": "1 MOWBRAY CLOSE CASTLE HILL 2154", "locID": "LOC000030396804", "tech": "FTTN", "upgrade": "FTTP_SA"}}, {"type": "Feature", "geometry": {"type": "Point", "coordinates": [150.97218624, -33.72221942]}, "properties": {"name": "1 MURDOCCA PLACE CASTLE HILL 2154", "locID": "LOC000092796945", "tech": "FTTN", "upgrade": "FTTP_SA"}}, {"type": "Feature", "geometry": {"type": "Point", "coordinates": [150.99932879, -33.71730748]}, "properties": {"name": "1 MURRUMBA PLACE CASTLE HILL 2154", "locID": "LOC000107533966", "tech": "HFC", "upgrade": "NULL_NA"}}, {"type": "Feature", "geometry": {"type": "Point", "coordinates": [151.0160532, -33.72098258]}, "properties": {"name": "1 MURRUNG WAY CASTLE HILL 2154", "locID": "LOC000019848428", "tech": "FTTN", "upgrade": "FTTP_SA"}}, {"type": "Feature", "geometry": {"type": "Point", "coordinates": [151.00336699, -33.74104045]}, "properties": {"name": "1 NARELLE AVENUE CASTLE HILL 2154", "locID": "LOC000007417816", "tech": "HFC", "upgrade": "NULL_NA"}}, {"type": "Feature", "geometry": {"type": "Point", "coordinates": [151.01634319, -33.73945505]}, "properties": {"name": "1 NIELLO CLOSE CASTLE HILL 2154", "locID": "LOC000087829000", "tech": "HFC", "upgrade": "NULL_NA"}}, {"type": "Feature", "geometry": {"type": "Point", "coordinates": [150.96600328, -33.72052485]}, "properties": {"name": "1 NORHAM MEWS CASTLE HILL 2154", "locID": "LOC000011312285", "tech": "FTTN", "upgrade": "FTTP_SA"}}, {"type": "Feature", "geometry": {"type": "Point", "coordinates": [150.9692324, -33.71638404]}, "properties": {"name": "1 NORTHWOOD PLACE CASTLE HILL 2154", "locID": "LOC000035923883", "tech": "FTTN", "upgrade": "NULL_NA"}}, {"type": "Feature", "geometry": {"type": "Point", "coordinates": [150.99901353, -33.72173953]}, "properties": {"name": "1 NOTTINGHAM AVENUE CASTLE HILL 2154", "locID": "LOC000078882908", "tech": "HFC", "upgrade": "NULL_NA"}}, {"type": "Feature", "geometry": {"type": "Point", "coordinates": [150.99014782, -33.74143716]}, "properties": {"name": "1 NYALLA PLACE CASTLE HILL 2154", "locID": "LOC000120146936", "tech": "HFC", "upgrade": "NULL_NA"}}, {"type": "Feature", "geometry": {"type": "Point", "coordinates": [151.02189055, -33.71467809]}, "properties": {"name": "1 OAKLEA WAY CASTLE HILL 2154", "locID": "LOC000014683101", "tech": "FTTN", "upgrade": "NULL_NA"}}, {"type": "Feature", "geometry": {"type": "Point", "coordinates": [150.97543049, -33.71484006]}, "properties": {"name": "1 OCTAGONAL AVENUE CASTLE HILL 2154", "locID": "LOC000038100975", "tech": "HFC", "upgrade": "NULL_NA"}}, {"type": "Feature", "geometry": {"type": "Point", "coordinates": [151.0264696, -33.72258251]}, "properties": {"name": "1 ODNEY PLACE CASTLE HILL 2154", "locID": "LOC000031251262", "tech": "HFC", "upgrade": "NULL_NA"}}, {"type": "Feature", "geometry": {"type": "Point", "coordinates": [151.00566312, -33.7318336]}, "properties": {"name": "1 OLD CASTLE HILL ROAD CASTLE HILL 2154", "locID": "LOC000014648924", "tech": "FTTN", "upgrade": "NULL_NA"}}, {"type": "Feature", "geometry": {"type": "Point", "coordinates": [151.02227274, -33.72578039]}, "properties": {"name": "1 OLLIE PLACE CASTLE HILL 2154", "locID": "LOC000010563983", "tech": "HFC", "upgrade": "NULL_NA"}}, {"type": "Feature", "geometry": {"type": "Point", "coordinates": [151.00758927, -33.73533953]}, "properties": {"name": "1 OLOLA AVENUE CASTLE HILL 2154", "locID": "LOC000010845755", "tech": "HFC", "upgrade": "NULL_NA"}}, {"type": "Feature", "geometry": {"type": "Point", "coordinates": [151.00816901, -33.73385014]}, "properties": {"name": "1 ORANGE GROVE CASTLE HILL 2154", "locID": "LOC000033037259", "tech": "HFC", "upgrade": "NULL_NA"}}, {"type": "Feature", "geometry": {"type": "Point", "coordinates": [151.02367336, -33.72902375]}, "properties": {"name": "1 ORCHARD AVENUE CASTLE HILL 2154", "locID": "LOC000067238346", "tech": "FTTN", "upgrade": "NULL_NA"}}, {"type": "Feature", "geometry": {"type": "Point", "coordinates": [151.02283942, -33.71982439]}, "properties": {"name": "1 ORION CLOSE CASTLE HILL 2154", "locID": "LOC000105790730", "tech": "HFC", "upgrade": "NULL_NA"}}, {"type": "Feature", "geometry": {"type": "Point", "coordinates": [151.01965447, -33.72108965]}, "properties": {"name": "1 OWEN WAY CASTLE HILL 2154", "locID": "LOC000044140909", "tech": "HFC", "upgrade": "NULL_NA"}}, {"type": "Feature", "geometry": {"type": "Point", "coordinates": [150.98247289, -33.73556777]}, "properties": {"name": "1 PACKARD AVENUE CASTLE HILL 2154", "locID": "LOC000068669943", "tech": "FTTN", "upgrade": "NULL_NA"}}, {"type": "Feature", "geometry": {"type": "Point", "coordinates": [151.01393649, -33.72708092]}, "properties": {"name": "1 PALISANDER PLACE CASTLE HILL 2154", "locID": "LOC000100933758", "tech": "HFC", "upgrade": "NULL_NA"}}, {"type": "Feature", "geometry": {"type": "Point", "coordinates": [151.02412795, -33.71660549]}, "properties": {"name": "1 PARKWOOD CLOSE CASTLE HILL 2154", "locID": "LOC000042051705", "tech": "FTTN", "upgrade": "FTTP_SA"}}, {"type": "Feature", "geometry": {"type": "Point", "coordinates": [151.00029568, -33.73806633]}, "properties": {"name": "1 PARSONAGE ROAD CASTLE HILL 2154", "locID": "LOC000011366690", "tech": "HFC", "upgrade": "NULL_NA"}}, {"type": "Feature", "geometry": {"type": "Point", "coordinates": [150.98812388, -33.72852034]}, "properties": {"name": "1 PARTRIDGE AVENUE CASTLE HILL 2154", "locID": "LOC000056857012", "tech": "HFC", "upgrade": "NULL_NA"}}, {"type": "Feature", "geometry": {"type": "Point", "coordinates": [151.00368246, -33.74119408]}, "properties": {"name": "1 PATRICIA COURT CASTLE HILL 2154", "locID": "LOC000040823142", "tech": "HFC", "upgrade": "NULL_NA"}}, {"type": "Feature", "geometry": {"type": "Point", "coordinates": [150.99744932, -33.72865291]}, "properties": {"name": "1 PATRICK AVENUE CASTLE HILL 2154", "locID": "LOC000040134028", "tech": "HFC", "upgrade": "NULL_NA"}}, {"type": "Feature", "geometry": {"type": "Point", "coordinates": [150.9898967, -33.73552423]}, "properties": {"name": "1 PAXTON PLACE CASTLE HILL 2154", "locID": "LOC000078205943", "tech": "HFC", "upgrade": "NULL_NA"}}, {"type": "Feature", "geometry": {"type": "Point", "coordinates": [151.0045153, -33.72927872]}, "properties": {"name": "1 PENNANT WAY CASTLE HILL 2154", "locID": "LOC000029873845", "tech": "HFC", "upgrade": "NULL_NA"}}, {"type": "Feature", "geometry": {"type": "Point", "coordinates": [150.99732888, -33.71672338]}, "properties": {"name": "1 PENRHYN PLACE CASTLE HILL 2154", "locID": "LOC000021323450", "tech": "HFC", "upgrade": "NULL_NA"}}, {"type": "Feature", "geometry": {"type": "Point", "coordinates": [150.97116626, -33.72296704]}, "properties": {"name": "1 PENTONVILLE PARADE CASTLE HILL 2154", "locID": "LOC000055410412", "tech": "FTTN", "upgrade": "FTTP_SA"}}, {"type": "Feature", "geometry": {"type": "Point", "coordinates": [150.96646157, -33.71898169]}, "properties": {"name": "1 PEVENSEY STREET CASTLE HILL 2154", "locID": "LOC000120142424", "tech": "FTTN", "upgrade": "FTTP_SA"}}, {"type": "Feature", "geometry": {"type": "Point", "coordinates": [151.01257194, -33.72765822]}, "properties": {"name": "1 PIONEER PLACE CASTLE HILL 2154", "locID": "LOC000072142555", "tech": "HFC", "upgrade": "NULL_NA"}}, {"type": "Feature", "geometry": {"type": "Point", "coordinates": [150.97821387, -33.72202304]}, "properties": {"name": "1 POWYS CIRCUIT CASTLE HILL 2154", "locID": "LOC000120139350", "tech": "HFC", "upgrade": "NULL_NA"}}, {"type": "Feature", "geometry": {"type": "Point", "coordinates": [150.9982856, -33.73461129]}, "properties": {"name": "1 PURSER AVENUE CASTLE HILL 2154", "locID": "LOC000187281389", "tech": "FTTP", "upgrade": "NULL_NA"}}, {"type": "Feature", "geometry": {"type": "Point", "coordinates": [150.97717413, -33.71828829]}, "properties": {"name": "1 QUEENS COURT CASTLE HILL 2154", "locID": "LOC000084406939", "tech": "HFC", "upgrade": "NULL_NA"}}, {"type": "Feature", "geometry": {"type": "Point", "coordinates": [151.00408979, -33.72258066]}, "properties": {"name": "1 RADFORD PLACE CASTLE HILL 2154", "locID": "LOC000021206848", "tech": "HFC", "upgrade": "NULL_NA"}}, {"type": "Feature", "geometry": {"type": "Point", "coordinates": [151.00871502, -33.71854228]}, "properties": {"name": "1 REDWOOD CLOSE CASTLE HILL 2154", "locID": "LOC000035171673", "tech": "HFC", "upgrade": "NULL_NA"}}, {"type": "Feature", "geometry": {"type": "Point", "coordinates": [150.97931935, -33.71804482]}, "properties": {"name": "1 REGENT PLACE CASTLE HILL 2154", "locID": "LOC000079737749", "tech": "HFC", "upgrade": "NULL_NA"}}, {"type": "Feature", "geometry": {"type": "Point", "coordinates": [151.02594084, -33.72512919]}, "properties": {"name": "1 RICHMOND COURT CASTLE HILL 2154", "locID": "LOC000037225314", "tech": "HFC", "upgrade": "NULL_NA"}}, {"type": "Feature", "geometry": {"type": "Point", "coordinates": [150.992168, -33.7130192]}, "properties": {"name": "1 RIDGECROP DRIVE CASTLE HILL 2154", "locID": "LOC000019852324", "tech": "HFC", "upgrade": "NULL_NA"}}, {"type": "Feature", "geometry": {"type": "Point", "coordinates": [150.9777798, -33.72075662]}, "properties": {"name": "1 ROCHESTER GROVE CASTLE HILL 2154", "locID": "LOC000082828883", "tech": "HFC", "upgrade": "NULL_NA"}}, {"type": "Feature", "geometry": {"type": "Point", "coordinates": [151.0089834, -33.73961365]}, "properties": {"name": "1 ROGANS RISE CASTLE HILL 2154", "locID": "LOC000171283632", "tech": "HFC", "upgrade": "NULL_NA"}}, {"type": "Feature", "geometry": {"type": "Point", "coordinates": [151.00447345, -33.73758239]}, "properties": {"name": "1 ROGER AVENUE CASTLE HILL 2154", "locID": "LOC000056041356", "tech": "HFC", "upgrade": "NULL_NA"}}, {"type": "Feature", "geometry": {"type": "Point", "coordinates": [150.99459437, -33.74213747]}, "properties": {"name": "1 RONDELAY DRIVE CASTLE HILL 2154", "locID": "LOC000049311132", "tech": "HFC", "upgrade": "NULL_NA"}}, {"type": "Feature", "geometry": {"type": "Point", "coordinates": [150.99828821, -33.72878912]}, "properties": {"name": "1 ROWALLAN AVENUE CASTLE HILL 2154", "locID": "LOC000018023098", "tech": "HFC", "upgrade": "NULL_NA"}}, {"type": "Feature", "geometry": {"type": "Point", "coordinates": [150.99548101, -33.74737792]}, "properties": {"name": "1 RYDAL AVENUE CASTLE HILL 2154", "locID": "LOC000088848694", "tech": "HFC", "upgrade": "NULL_NA"}}, {"type": "Feature", "geometry": {"type": "Point", "coordinates": [150.97308858, -33.7307493]}, "properties": {"name": "1 SALISBURY ROAD CASTLE HILL 2154", "locID": "LOC000098685360", "tech": "FTTN", "upgrade": "NULL_NA"}}, {"type": "Feature", "geometry": {"type": "Point", "coordinates": [150.99871642, -33.74169314]}, "properties": {"name": "1 SAN GIORGIO CIRCUIT CASTLE HILL 2154", "locID": "LOC000042159073", "tech": "HFC", "upgrade": "NULL_NA"}}, {"type": "Feature", "geometry": {"type": "Point", "coordinates": [151.01291322, -33.72564025]}, "properties": {"name": "1 SETTLERS CLOSE CASTLE HILL 2154", "locID": "LOC000009709667", "tech": "HFC", "upgrade": "NULL_NA"}}, {"type": "Feature", "geometry": {"type": "Point", "coordinates": [150.9919522, -33.72814363]}, "properties": {"name": "1 SEXTON AVENUE CASTLE HILL 2154", "locID": "LOC000094742658", "tech": "HFC", "upgrade": "NULL_NA"}}, {"type": "Feature", "geometry": {"type": "Point", "coordinates": [151.01590123, -33.7235221]}, "properties": {"name": "1 SHERBROOKE CRESCENT CASTLE HILL 2154", "locID": "LOC000004701634", "tech": "FTTN", "upgrade": "FTTP_SA"}}, {"type": "Feature", "geometry": {"type": "Point", "coordinates": [151.00334325, -33.73388834]}, "properties": {"name": "1 SHOWGROUND ROAD CASTLE HILL 2154", "locID": "LOC000050756085", "tech": "FTTN", "upgrade": "NULL_NA"}}, {"type": "Feature", "geometry": {"type": "Point", "coordinates": [151.01138261, -33.74530156]}, "properties": {"name": "1 SILKY OAK PLACE CASTLE HILL 2154", "locID": "LOC000053664057", "tech": "HFC", "upgrade": "NULL_NA"}}, {"type": "Feature", "geometry": {"type": "Point", "coordinates": [151.02137162, -33.72933961]}, "properties": {"name": "1 SILVERMIST CRESCENT CASTLE HILL 2154", "locID": "LOC000034519106", "tech": "FTTN", "upgrade": "NULL_NA"}}, {"type": "Feature", "geometry": {"type": "Point", "coordinates": [151.02167686, -33.72872268]}, "properties": {"name": "1 SLADE AVENUE CASTLE HILL 2154", "locID": "LOC000067452092", "tech": "FTTN", "upgrade": "NULL_NA"}}, {"type": "Feature", "geometry": {"type": "Point", "coordinates": [150.9933602, -33.73495388]}, "properties": {"name": "1 SOUTHLEIGH AVENUE CASTLE HILL 2154", "locID": "LOC000016845538", "tech": "HFC", "upgrade": "NULL_NA"}}, {"type": "Feature", "geometry": {"type": "Point", "coordinates": [151.0209609, -33.72100885]}, "properties": {"name": "1 SPRINGTHORPE WAY CASTLE HILL 2154", "locID": "LOC000002296336", "tech": "HFC", "upgrade": "NULL_NA"}}, {"type": "Feature", "geometry": {"type": "Point", "coordinates": [150.98927018, -33.71283218]}, "properties": {"name": "1 SQUIRE PLACE CASTLE HILL 2154", "locID": "LOC000044006527", "tech": "HFC", "upgrade": "NULL_NA"}}, {"type": "Feature", "geometry": {"type": "Point", "coordinates": [151.0009097, -33.72228303]}, "properties": {"name": "1 ST MARKS AVENUE CASTLE HILL 2154", "locID": "LOC000084342931", "tech": "HFC", "upgrade": "NULL_NA"}}, {"type": "Feature", "geometry": {"type": "Point", "coordinates": [150.97452549, -33.72004499]}, "properties": {"name": "1 ST PAULS AVENUE CASTLE HILL 2154", "locID": "LOC000053719621", "tech": "FTTN", "upgrade": "FTTP_SA"}}, {"type": "Feature", "geometry": {"type": "Point", "coordinates": [151.01255388, -33.72104819]}, "properties": {"name": "1 ST SIMON PLACE CASTLE HILL 2154", "locID": "LOC000003166026", "tech": "FTTN", "upgrade": "NULL_NA"}}, {"type": "Feature", "geometry": {"type": "Point", "coordinates": [151.0045967, -33.73970886]}, "properties": {"name": "1 STEWART DRIVE CASTLE HILL 2154", "locID": "LOC000106273627", "tech": "HFC", "upgrade": "NULL_NA"}}, {"type": "Feature", "geometry": {"type": "Point", "coordinates": [151.02856462, -33.72576306]}, "properties": {"name": "1 STIRLING COURT CASTLE HILL 2154", "locID": "LOC000082172369", "tech": "HFC", "upgrade": "NULL_NA"}}, {"type": "Feature", "geometry": {"type": "Point", "coordinates": [151.0073636, -33.74137064]}, "properties": {"name": "1 STONE COTTAGE COURT CASTLE HILL 2154", "locID": "LOC000028158647", "tech": "HFC", "upgrade": "NULL_NA"}}, {"type": "Feature", "geometry": {"type": "Point", "coordinates": [151.0162316, -33.74217059]}, "properties": {"name": "1 STRINGYBARK PLACE CASTLE HILL 2154", "locID": "LOC000012219710", "tech": "HFC", "upgrade": "NULL_NA"}}, {"type": "Feature", "geometry": {"type": "Point", "coordinates": [150.9975667, -33.7199402]}, "properties": {"name": "1 SURREY AVENUE CASTLE HILL 2154", "locID": "LOC000089415158", "tech": "HFC", "upgrade": "NULL_NA"}}, {"type": "Feature", "geometry": {"type": "Point", "coordinates": [150.998691, -33.73617538]}, "properties": {"name": "1 SUSAN PARADE CASTLE HILL 2154", "locID": "LOC000052086576", "tech": "HFC", "upgrade": "NULL_NA"}}, {"type": "Feature", "geometry": {"type": "Point", "coordinates": [151.02184871, -33.71858481]}, "properties": {"name": "1 TAHLEE CLOSE CASTLE HILL 2154", "locID": "LOC000005619193", "tech": "HFC", "upgrade": "NULL_NA"}}, {"type": "Feature", "geometry": {"type": "Point", "coordinates": [151.02107128, -33.72910886]}, "properties": {"name": "1 TALL TREES AVENUE CASTLE HILL 2154", "locID": "LOC000001610478", "tech": "FTTN", "upgrade": "NULL_NA"}}, {"type": "Feature", "geometry": {"type": "Point", "coordinates": [151.00458738, -33.71673701]}, "properties": {"name": "1 TALOFA PLACE CASTLE HILL 2154", "locID": "LOC000057723805", "tech": "HFC", "upgrade": "NULL_NA"}}, {"type": "Feature", "geometry": {"type": "Point", "coordinates": [151.00816324, -33.72219311]}, "properties": {"name": "1 TASMAN COURT CASTLE HILL 2154", "locID": "LOC000084885041", "tech": "HFC", "upgrade": "NULL_NA"}}, {"type": "Feature", "geometry": {"type": "Point", "coordinates": [151.00881106, -33.73576846]}, "properties": {"name": "1 TATHRA PLACE CASTLE HILL 2154", "locID": "LOC000072325299", "tech": "HFC", "upgrade": "NULL_NA"}}, {"type": "Feature", "geometry": {"type": "Point", "coordinates": [151.01417411, -33.73273125]}, "properties": {"name": "1 TELFER ROAD CASTLE HILL 2154", "locID": "LOC000012362117", "tech": "HFC", "upgrade": "NULL_NA"}}, {"type": "Feature", "geometry": {"type": "Point", "coordinates": [151.00710452, -33.73320559]}, "properties": {"name": "1 TERMINUS STREET CASTLE HILL 2154", "locID": "LOC000085277941", "tech": "FTTN", "upgrade": "NULL_NA"}}, {"type": "Feature", "geometry": {"type": "Point", "coordinates": [151.01283468, -33.73668602]}, "properties": {"name": "1 TIMOTHY AVENUE CASTLE HILL 2154", "locID": "LOC000091214209", "tech": "HFC", "upgrade": "NULL_NA"}}, {"type": "Feature", "geometry": {"type": "Point", "coordinates": [150.9652332, -33.71953774]}, "properties": {"name": "1 TOTNESS COURT CASTLE HILL 2154", "locID": "LOC000016319780", "tech": "FTTN", "upgrade": "FTTP_SA"}}, {"type": "Feature", "geometry": {"type": "Point", "coordinates": [150.97737128, -33.72007688]}, "properties": {"name": "1 TOWER COURT CASTLE HILL 2154", "locID": "LOC000049084824", "tech": "HFC", "upgrade": "NULL_NA"}}, {"type": "Feature", "geometry": {"type": "Point", "coordinates": [150.98911996, -33.73512135]}, "properties": {"name": "1 TREVOR PLACE CASTLE HILL 2154", "locID": "LOC000107262267", "tech": "HFC", "upgrade": "NULL_NA"}}, {"type": "Feature", "geometry": {"type": "Point", "coordinates": [151.00813115, -33.72526045]}, "properties": {"name": "1 TUCKWELL ROAD CASTLE HILL 2154", "locID": "LOC000091083755", "tech": "HFC", "upgrade": "NULL_NA"}}, {"type": "Feature", "geometry": {"type": "Point", "coordinates": [150.99152769, -33.7340658]}, "properties": {"name": "1 TURTON PLACE CASTLE HILL 2154", "locID": "LOC000087835085", "tech": "HFC", "upgrade": "NULL_NA"}}, {"type": "Feature", "geometry": {"type": "Point", "coordinates": [151.00042854, -33.72095057]}, "properties": {"name": "1 ULUNDRI DRIVE CASTLE HILL 2154", "locID": "LOC000040801593", "tech": "HFC", "upgrade": "NULL_NA"}}, {"type": "Feature", "geometry": {"type": "Point", "coordinates": [150.99381817, -33.73382135]}, "properties": {"name": "1 VERLETTA AVENUE CASTLE HILL 2154", "locID": "LOC000087324463", "tech": "HFC", "upgrade": "NULL_NA"}}, {"type": "Feature", "geometry": {"type": "Point", "coordinates": [150.97952162, -33.73045413]}, "properties": {"name": "1 VICTORIA AVENUE CASTLE HILL 2154", "locID": "LOC000182261102", "tech": "FTTN", "upgrade": "NULL_NA"}}, {"type": "Feature", "geometry": {"type": "Point", "coordinates": [151.02043093, -33.72980603]}, "properties": {"name": "1 VITTORIA SMITH AVENUE CASTLE HILL 2154", "locID": "LOC000037187234", "tech": "FTTN", "upgrade": "NULL_NA"}}, {"type": "Feature", "geometry": {"type": "Point", "coordinates": [151.00641045, -33.72689382]}, "properties": {"name": "1 VIVIEN PLACE CASTLE HILL 2154", "locID": "LOC000087417983", "tech": "HFC", "upgrade": "NULL_NA"}}, {"type": "Feature", "geometry": {"type": "Point", "coordinates": [151.01338703, -33.74027508]}, "properties": {"name": "1 WALSH AVENUE CASTLE HILL 2154", "locID": "LOC000106564762", "tech": "HFC", "upgrade": "NULL_NA"}}, {"type": "Feature", "geometry": {"type": "Point", "coordinates": [151.02101631, -33.73112762]}, "properties": {"name": "1 WALTERS WAY CASTLE HILL 2154", "locID": "LOC000096801759", "tech": "FTTN", "upgrade": "NULL_NA"}}, {"type": "Feature", "geometry": {"type": "Point", "coordinates": [150.99600753, -33.73095832]}, "properties": {"name": "1 WARWICK PARADE CASTLE HILL 2154", "locID": "LOC000075757046", "tech": "HFC", "upgrade": "NULL_NA"}}, {"type": "Feature", "geometry": {"type": "Point", "coordinates": [150.9851893, -33.73769855]}, "properties": {"name": "1 WASHINGTON PLACE CASTLE HILL 2154", "locID": "LOC000035514301", "tech": "HFC", "upgrade": "NULL_NA"}}, {"type": "Feature", "geometry": {"type": "Point", "coordinates": [150.99658091, -33.72369131]}, "properties": {"name": "1 WATERLOO AVENUE CASTLE HILL 2154", "locID": "LOC000004628108", "tech": "HFC", "upgrade": "NULL_NA"}}, {"type": "Feature", "geometry": {"type": "Point", "coordinates": [151.02854974, -33.72624832]}, "properties": {"name": "1 WESTMINSTER DRIVE CASTLE HILL 2154", "locID": "LOC000098026166", "tech": "HFC", "upgrade": "NULL_NA"}}, {"type": "Feature", "geometry": {"type": "Point", "coordinates": [150.99517929, -33.72778335]}, "properties": {"name": "1 WHITE PLACE CASTLE HILL 2154", "locID": "LOC000069615865", "tech": "HFC", "upgrade": "NULL_NA"}}, {"type": "Feature", "geometry": {"type": "Point", "coordinates": [150.99130782, -33.7354276]}, "properties": {"name": "1 WHITEHAVEN PLACE CASTLE HILL 2154", "locID": "LOC000069615865", "tech": "HFC", "upgrade": "NULL_NA"}}, {"type": "Feature", "geometry": {"type": "Point", "coordinates": [150.99610339, -33.73483496]}, "properties": {"name": "1 WHITLING AVENUE CASTLE HILL 2154", "locID": "LOC000026382809", "tech": "HFC", "upgrade": "NULL_NA"}}, {"type": "Feature", "geometry": {"type": "Point", "coordinates": [151.02132256, -33.71974283]}, "properties": {"name": "1 WILLOWBROOK PLACE CASTLE HILL 2154", "locID": "LOC000061892730", "tech": "HFC", "upgrade": "NULL_NA"}}, {"type": "Feature", "geometry": {"type": "Point", "coordinates": [151.00637497, -33.73757422]}, "properties": {"name": "1 WILLS AVENUE CASTLE HILL 2154", "locID": "LOC000078937330", "tech": "HFC", "upgrade": "NULL_NA"}}, {"type": "Feature", "geometry": {"type": "Point", "coordinates": [150.99766766, -33.73570226]}, "properties": {"name": "1 WILTON CLOSE CASTLE HILL 2154", "locID": "LOC000064617335", "tech": "HFC", "upgrade": "NULL_NA"}}, {"type": "Feature", "geometry": {"type": "Point", "coordinates": [150.98194492, -33.71546141]}, "properties": {"name": "1 WINDARRA PLACE CASTLE HILL 2154", "locID": "LOC000029864918", "tech": "HFC", "upgrade": "NULL_NA"}}, {"type": "Feature", "geometry": {"type": "Point", "coordinates": [150.98042928, -33.71368845]}, "properties": {"name": "1 WINSLOW AVENUE CASTLE HILL 2154", "locID": "LOC000024051318", "tech": "HFC", "upgrade": "NULL_NA"}}, {"type": "Feature", "geometry": {"type": "Point", "coordinates": [150.98953391, -33.73870446]}, "properties": {"name": "1 WISEMAN ROAD CASTLE HILL 2154", "locID": "LOC000068937518", "tech": "HFC", "upgrade": "NULL_NA"}}, {"type": "Feature", "geometry": {"type": "Point", "coordinates": [150.99393817, -33.71810684]}, "properties": {"name": "1 WOODCHESTER CLOSE CASTLE HILL 2154", "locID": "LOC000027102920", "tech": "HFC", "upgrade": "NULL_NA"}}, {"type": "Feature", "geometry": {"type": "Point", "coordinates": [151.03020452, -33.72562677]}, "properties": {"name": "1 WOODGROVE AVENUE CASTLE HILL 2154", "locID": "LOC000090730474", "tech": "HFC", "upgrade": "NULL_NA"}}, {"type": "Feature", "geometry": {"type": "Point", "coordinates": [151.0000439, -33.74136601]}, "properties": {"name": "1 WOODHILL STREET CASTLE HILL 2154", "locID": "LOC000003978806", "tech": "HFC", "upgrade": "NULL_NA"}}, {"type": "Feature", "geometry": {"type": "Point", "coordinates": [151.03072898, -33.72422389]}, "properties": {"name": "1 WOODLARK PLACE CASTLE HILL 2154", "locID": "LOC000028863099", "tech": "HFC", "upgrade": "NULL_NA"}}, {"type": "Feature", "geometry": {"type": "Point", "coordinates": [151.01040864, -33.72429495]}, "properties": {"name": "1 WOODVALE PLACE CASTLE HILL 2154", "locID": "LOC000077250864", "tech": "HFC", "upgrade": "NULL_NA"}}, {"type": "Feature", "geometry": {"type": "Point", "coordinates": [151.00120746, -33.7303904]}, "properties": {"name": "1 WORTHING AVENUE CASTLE HILL 2154", "locID": "LOC000101331290", "tech": "HFC", "upgrade": "NULL_NA"}}, {"type": "Feature", "geometry": {"type": "Point", "coordinates": [150.99388066, -33.72060688]}, "properties": {"name": "1 WYCHWOOD PLACE CASTLE HILL 2154", "locID": "LOC000110062345", "tech": "HFC", "upgrade": "NULL_NA"}}, {"type": "Feature", "geometry": {"type": "Point", "coordinates": [151.00518233, -33.7193979]}, "properties": {"name": "1 YANDIAH PLACE CASTLE HILL 2154", "locID": "LOC000077551149", "tech": "HFC", "upgrade": "NULL_NA"}}, {"type": "Feature", "geometry": {"type": "Point", "coordinates": [150.99908043, -33.72026151]}, "properties": {"name": "1 YARINGA ROAD CASTLE HILL 2154", "locID": "LOC000057400171", "tech": "HFC", "upgrade": "NULL_NA"}}, {"type": "Feature", "geometry": {"type": "Point", "coordinates": [151.00009049, -33.71866359]}, "properties": {"name": "1 YERRIEBAH PLACE CASTLE HILL 2154", "locID": "LOC000078949824", "tech": "HFC", "upgrade": "NULL_NA"}}, {"type": "Feature", "geometry": {"type": "Point", "coordinates": [151.00539193, -33.7192524]}, "properties": {"name": "1 YINNELL PLACE CASTLE HILL 2154", "locID": "LOC000030930597", "tech": "HFC", "upgrade": "NULL_NA"}}, {"type": "Feature", "geometry": {"type": "Point", "coordinates": [151.02783692, -33.71789401]}, "properties": {"name": "1 YOORANA PLACE CASTLE HILL 2154", "locID": "LOC000089521881", "tech": "FTTC", "upgrade": "FTTP_SA"}}, {"type": "Feature", "geometry": {"type": "Point", "coordinates": [151.00645821, -33.74006181]}, "properties": {"name": "1 YVONNE PLACE CASTLE HILL 2154", "locID": "LOC000070033949", "tech": "HFC", "upgrade": "NULL_NA"}}, {"type": "Feature", "geometry": {"type": "Point", "coordinates": [150.97771084, -33.72391783]}, "properties": {"name": "1 ZULLO COURT CASTLE HILL 2154", "locID": "LOC000086262987", "tech": "HFC", "upgrade": "NULL_NA"}}, {"type": "Feature", "geometry": {"type": "Point", "coordinates": [151.00815419, -33.73281231]}, "properties": {"name": "1-11 ROSA CRESCENT CASTLE HILL 2154", "locID": "LOC100054351593", "tech": "FTTB", "upgrade": "NULL_NA"}}, {"type": "Feature", "geometry": {"type": "Point", "coordinates": [151.00453901, -33.74040668]}, "properties": {"name": "1-3 CHURCH STREET CASTLE HILL 2154", "locID": "LOC000181507206", "tech": "HFC", "upgrade": "NULL_NA"}}, {"type": "Feature", "geometry": {"type": "Point", "coordinates": [150.98059657, -33.72343646]}, "properties": {"name": "1-3 KINGS ROAD CASTLE HILL 2154", "locID": "LOC000045475749", "tech": "HFC", "upgrade": "NULL_NA"}}, {"type": "Feature", "geometry": {"type": "Point", "coordinates": [151.02297874, -33.72125248]}, "properties": {"name": "1-3 OAKHILL DRIVE CASTLE HILL 2154", "locID": "LOC000044678746", "tech": "FTTN", "upgrade": "FTTP_SA"}}, {"type": "Feature", "geometry": {"type": "Point", "coordinates": [151.00189706, -33.73496307]}, "properties": {"name": "1-3 SHERWIN AVENUE CASTLE HILL 2154", "locID": "LOC000043359834", "tech": "HFC", "upgrade": "NULL_NA"}}, {"type": "Feature", "geometry": {"type": "Point", "coordinates": [151.01417411, -33.73273125]}, "properties": {"name": "1-3 TELFER ROAD CASTLE HILL 2154", "locID": "LOC000002179487", "tech": "HFC", "upgrade": "NULL_NA"}}, {"type": "Feature", "geometry": {"type": "Point", "coordinates": [151.00865358, -33.7331088]}, "properties": {"name": "1-5 MERCER STREET CASTLE HILL 2154", "locID": "LOC000064871615", "tech": "HFC", "upgrade": "NULL_NA"}}, {"type": "Feature", "geometry": {"type": "Point", "coordinates": [151.02297874, -33.72125248]}, "properties": {"name": "1-5 OAKHILL DRIVE CASTLE HILL 2154", "locID": "LOC000082375338", "tech": "HFC", "upgrade": "NULL_NA"}}, {"type": "Feature", "geometry": {"type": "Point", "coordinates": [150.99979885, -33.73691131]}, "properties": {"name": "1-7 HUME AVENUE CASTLE HILL 2154", "locID": "LOC000068945546", "tech": "HFC", "upgrade": "NULL_NA"}}, {"type": "Feature", "geometry": {"type": "Point", "coordinates": [151.02659166, -33.71451732]}, "properties": {"name": "10 ALLARA PLACE CASTLE HILL 2154", "locID": "LOC000073485550", "tech": "FTTN", "upgrade": "FTTP_SA"}}, {"type": "Feature", "geometry": {"type": "Point", "coordinates": [151.02233119, -33.71457036]}, "properties": {"name": "10 AMBERLEA COURT CASTLE HILL 2154", "locID": "LOC000042645479", "tech": "FTTN", "upgrade": "FTTP_SA"}}, {"type": "Feature", "geometry": {"type": "Point", "coordinates": [151.01847339, -33.73625884]}, "properties": {"name": "10 AMBERWOOD PLACE CASTLE HILL 2154", "locID": "LOC000070394135", "tech": "HFC", "upgrade": "NULL_NA"}}, {"type": "Feature", "geometry": {"type": "Point", "coordinates": [150.99519446, -33.74702609]}, "properties": {"name": "10 AMBLESIDE DRIVE CASTLE HILL 2154", "locID": "LOC000108402334", "tech": "HFC", "upgrade": "NULL_NA"}}, {"type": "Feature", "geometry": {"type": "Point", "coordinates": [150.9803869, -33.72489934]}, "properties": {"name": "10 ANELLA AVENUE CASTLE HILL 2154", "locID": "LOC000077863219", "tech": "FTTN", "upgrade": "NULL_NA"}}, {"type": "Feature", "geometry": {"type": "Point", "coordinates": [151.00675123, -33.72341712]}, "properties": {"name": "10 ANNELIESE PLACE CASTLE HILL 2154", "locID": "LOC000030598177", "tech": "HFC", "upgrade": "NULL_NA"}}, {"type": "Feature", "geometry": {"type": "Point", "coordinates": [150.99526308, -33.7337115]}, "properties": {"name": "10 ANTHONY ROAD CASTLE HILL 2154", "locID": "LOC000021412793", "tech": "HFC", "upgrade": "NULL_NA"}}, {"type": "Feature", "geometry": {"type": "Point", "coordinates": [150.97783376, -33.71405157]}, "properties": {"name": "10 APAP AVENUE CASTLE HILL 2154", "locID": "LOC000093623908", "tech": "HFC", "upgrade": "NULL_NA"}}, {"type": "Feature", "geometry": {"type": "Point", "coordinates": [151.00116111, -33.71622355]}, "properties": {"name": "10 APPLECROSS AVENUE CASTLE HILL 2154", "locID": "LOC000098658875", "tech": "HFC", "upgrade": "NULL_NA"}}, {"type": "Feature", "geometry": {"type": "Point", "coordinates": [150.9926939, -33.71902418]}, "properties": {"name": "10 ARLINGTON AVENUE CASTLE HILL 2154", "locID": "LOC000044117460", "tech": "HFC", "upgrade": "NULL_NA"}}, {"type": "Feature", "geometry": {"type": "Point", "coordinates": [151.02210283, -33.72184915]}, "properties": {"name": "10 ARMIDALE CRESCENT CASTLE HILL 2154", "locID": "LOC000091889285", "tech": "HFC", "upgrade": "NULL_NA"}}, {"type": "Feature", "geometry": {"type": "Point", "coordinates": [150.9888186, -33.73227127]}, "properties": {"name": "10 ASHFORD AVENUE CASTLE HILL 2154", "locID": "LOC000094675349", "tech": "HFC", "upgrade": "NULL_NA"}}, {"type": "Feature", "geometry": {"type": "Point", "coordinates": [150.99476393, -33.7211122]}, "properties": {"name": "10 ASHMEAD AVENUE CASTLE HILL 2154", "locID": "LOC000023692521", "tech": "HFC", "upgrade": "NULL_NA"}}, {"type": "Feature", "geometry": {"type": "Point", "coordinates": [150.98814324, -33.73598638]}, "properties": {"name": "10 AZALEA GROVE CASTLE HILL 2154", "locID": "LOC000051306541", "tech": "HFC", "upgrade": "NULL_NA"}}, {"type": "Feature", "geometry": {"type": "Point", "coordinates": [151.00647647, -33.71579815]}, "properties": {"name": "10 BALINTORE DRIVE CASTLE HILL 2154", "locID": "LOC000108697828", "tech": "HFC", "upgrade": "NULL_NA"}}, {"type": "Feature", "geometry": {"type": "Point", "coordinates": [151.00959037, -33.72016909]}, "properties": {"name": "10 BANKS ROAD CASTLE HILL 2154", "locID": "LOC000010095465", "tech": "HFC", "upgrade": "NULL_NA"}}, {"type": "Feature", "geometry": {"type": "Point", "coordinates": [151.02630703, -33.71713571]}, "properties": {"name": "10 BARCOTE PLACE CASTLE HILL 2154", "locID": "LOC000051367356", "tech": "FTTC", "upgrade": "FTTP_SA"}}, {"type": "Feature", "geometry": {"type": "Point", "coordinates": [151.0209761, -33.72924072]}, "properties": {"name": "10 BARKER DRIVE CASTLE HILL 2154", "locID": "LOC000069086855", "tech": "FTTN", "upgrade": "NULL_NA"}}, {"type": "Feature", "geometry": {"type": "Point", "coordinates": [150.99872305, -33.74273301]}, "properties": {"name": "10 BARONIA CIRCUIT CASTLE HILL 2154", "locID": "LOC000028056095", "tech": "HFC", "upgrade": "NULL_NA"}}, {"type": "Feature", "geometry": {"type": "Point", "coordinates": [151.00333653, -33.72698743]}, "properties": {"name": "10 BARRAWARN PLACE CASTLE HILL 2154", "locID": "LOC000033184513", "tech": "HFC", "upgrade": "NULL_NA"}}, {"type": "Feature", "geometry": {"type": "Point", "coordinates": [151.0234901, -33.72483982]}, "properties": {"name": "10 BASSETT PLACE CASTLE HILL 2154", "locID": "LOC000040809035", "tech": "HFC", "upgrade": "NULL_NA"}}, {"type": "Feature", "geometry": {"type": "Point", "coordinates": [150.9877907, -33.70775229]}, "properties": {"name": "10 BATTLEMENT CRESCENT CASTLE HILL 2154", "locID": "LOC000066271203", "tech": "HFC", "upgrade": "NULL_NA"}}, {"type": "Feature", "geometry": {"type": "Point", "coordinates": [151.02760313, -33.71981963]}, "properties": {"name": "10 BAYDON STREET CASTLE HILL 2154", "locID": "LOC000097391833", "tech": "FTTC", "upgrade": "FTTP_SA"}}, {"type": "Feature", "geometry": {"type": "Point", "coordinates": [150.9773895, -33.72049846]}, "properties": {"name": "10 BEAUMARIS AVENUE CASTLE HILL 2154", "locID": "LOC000094506939", "tech": "HFC", "upgrade": "NULL_NA"}}, {"type": "Feature", "geometry": {"type": "Point", "coordinates": [150.97243444, -33.71841205]}, "properties": {"name": "10 BELLEMARIE DRIVE CASTLE HILL 2154", "locID": "LOC000077691345", "tech": "FTTN", "upgrade": "FTTP_SA"}}, {"type": "Feature", "geometry": {"type": "Point", "coordinates": [151.02536439, -33.71349898]}, "properties": {"name": "10 BELLTREE CRESCENT CASTLE HILL 2154", "locID": "LOC000080193874", "tech": "FTTN", "upgrade": "FTTP_SA"}}, {"type": "Feature", "geometry": {"type": "Point", "coordinates": [151.03014491, -33.72164814]}, "properties": {"name": "10 BELLWOOD PLACE CASTLE HILL 2154", "locID": "LOC000011277576", "tech": "HFC", "upgrade": "NULL_NA"}}, {"type": "Feature", "geometry": {"type": "Point", "coordinates": [150.99362483, -33.72735393]}, "properties": {"name": "10 BELVEDERE AVENUE CASTLE HILL 2154", "locID": "LOC000042598660", "tech": "HFC", "upgrade": "NULL_NA"}}, {"type": "Feature", "geometry": {"type": "Point", "coordinates": [150.99913655, -33.715844]}, "properties": {"name": "10 BENBULLEN WAY CASTLE HILL 2154", "locID": "LOC000064421095", "tech": "HFC", "upgrade": "NULL_NA"}}, {"type": "Feature", "geometry": {"type": "Point", "coordinates": [151.01523253, -33.74572957]}, "properties": {"name": "10 BENDTREE WAY CASTLE HILL 2154", "locID": "LOC000046270708", "tech": "HFC", "upgrade": "NULL_NA"}}, {"type": "Feature", "geometry": {"type": "Point", "coordinates": [151.01309101, -33.72460691]}, "properties": {"name": "10 BENNETT PLACE CASTLE HILL 2154", "locID": "LOC000005957375", "tech": "HFC", "upgrade": "NULL_NA"}}, {"type": "Feature", "geometry": {"type": "Point", "coordinates": [150.97632346, -33.71378276]}, "properties": {"name": "10 BENTHAM PLACE CASTLE HILL 2154", "locID": "LOC000013240738", "tech": "HFC", "upgrade": "NULL_NA"}}, {"type": "Feature", "geometry": {"type": "Point", "coordinates": [151.00121586, -33.72757241]}, "properties": {"name": "10 BIMBIL PLACE CASTLE HILL 2154", "locID": "LOC000029125316", "tech": "HFC", "upgrade": "NULL_NA"}}, {"type": "Feature", "geometry": {"type": "Point", "coordinates": [150.98816663, -33.70800902]}, "properties": {"name": "10 BISHOPSGATE AVENUE CASTLE HILL 2154", "locID": "LOC000017979133", "tech": "HFC", "upgrade": "NULL_NA"}}, {"type": "Feature", "geometry": {"type": "Point", "coordinates": [150.98906924, -33.74353271]}, "properties": {"name": "10 BLACKETT DRIVE CASTLE HILL 2154", "locID": "LOC000084263036", "tech": "HFC", "upgrade": "NULL_NA"}}, {"type": "Feature", "geometry": {"type": "Point", "coordinates": [150.98145477, -33.71911766]}, "properties": {"name": "10 BODEN PLACE CASTLE HILL 2154", "locID": "LOC000051420764", "tech": "HFC", "upgrade": "NULL_NA"}}, {"type": "Feature", "geometry": {"type": "Point", "coordinates": [151.01831163, -33.74023135]}, "properties": {"name": "10 BOLWARRA CRESCENT CASTLE HILL 2154", "locID": "LOC000090689746", "tech": "HFC", "upgrade": "NULL_NA"}}, {"type": "Feature", "geometry": {"type": "Point", "coordinates": [151.00952039, -33.73668842]}, "properties": {"name": "10 BONNEFIN PLACE CASTLE HILL 2154", "locID": "LOC000013264858", "tech": "HFC", "upgrade": "NULL_NA"}}, {"type": "Feature", "geometry": {"type": "Point", "coordinates": [150.97347964, -33.71859636]}, "properties": {"name": "10 BORDEAUX CRESCENT CASTLE HILL 2154", "locID": "LOC000063302449", "tech": "FTTN", "upgrade": "FTTP_SA"}}, {"type": "Feature", "geometry": {"type": "Point", "coordinates": [150.99326641, -33.72469004]}, "properties": {"name": "10 BOUNTY AVENUE CASTLE HILL 2154", "locID": "LOC000020894634", "tech": "HFC", "upgrade": "NULL_NA"}}, {"type": "Feature", "geometry": {"type": "Point", "coordinates": [150.9934835, -33.7442357]}, "properties": {"name": "10 BOWMAN AVENUE CASTLE HILL 2154", "locID": "LOC000045278754", "tech": "FTTC", "upgrade": "FTTP_SA"}}, {"type": "Feature", "geometry": {"type": "Point", "coordinates": [151.01678684, -33.73972267]}, "properties": {"name": "10 BRAE PLACE CASTLE HILL 2154", "locID": "LOC000049480528", "tech": "HFC", "upgrade": "NULL_NA"}}, {"type": "Feature", "geometry": {"type": "Point", "coordinates": [151.0028921, -33.71616665]}, "properties": {"name": "10 BRAEFIELD PLACE CASTLE HILL 2154", "locID": "LOC000009577957", "tech": "HFC", "upgrade": "NULL_NA"}}, {"type": "Feature", "geometry": {"type": "Point", "coordinates": [151.00669677, -33.72370264]}, "properties": {"name": "10 BRECON COURT CASTLE HILL 2154", "locID": "LOC000186802975", "tech": "HFC", "upgrade": "NULL_NA"}}, {"type": "Feature", "geometry": {"type": "Point", "coordinates": [151.01982991, -33.7423448]}, "properties": {"name": "10 BRENTWOOD WAY CASTLE HILL 2154", "locID": "LOC000105069248", "tech": "HFC", "upgrade": "NULL_NA"}}, {"type": "Feature", "geometry": {"type": "Point", "coordinates": [151.01016193, -33.73227236]}, "properties": {"name": "10 BRISBANE ROAD CASTLE HILL 2154", "locID": "LOC000102252877", "tech": "HFC", "upgrade": "NULL_NA"}}, {"type": "Feature", "geometry": {"type": "Point", "coordinates": [151.00111072, -33.72296772]}, "properties": {"name": "10 BRITANNIA ROAD CASTLE HILL 2154", "locID": "LOC000009554903", "tech": "HFC", "upgrade": "NULL_NA"}}, {"type": "Feature", "geometry": {"type": "Point", "coordinates": [151.02214803, -33.7154907]}, "properties": {"name": "10 BROADOAK PLACE CASTLE HILL 2154", "locID": "LOC000033067352", "tech": "FTTN", "upgrade": "FTTP_SA"}}, {"type": "Feature", "geometry": {"type": "Point", "coordinates": [150.99076545, -33.71105106]}, "properties": {"name": "10 BROADSWORD PLACE CASTLE HILL 2154", "locID": "LOC000092120938", "tech": "HFC", "upgrade": "NULL_NA"}}, {"type": "Feature", "geometry": {"type": "Point", "coordinates": [151.02356107, -33.7229714]}, "properties": {"name": "10 BROSNAN PLACE CASTLE HILL 2154", "locID": "LOC000046051333", "tech": "HFC", "upgrade": "NULL_NA"}}, {"type": "Feature", "geometry": {"type": "Point", "coordinates": [151.02196681, -33.72828474]}, "properties": {"name": "10 BROUGHTON AVENUE CASTLE HILL 2154", "locID": "LOC000067238305", "tech": "FTTN", "upgrade": "NULL_NA"}}, {"type": "Feature", "geometry": {"type": "Point", "coordinates": [150.99991682, -33.74856981]}, "properties": {"name": "10 BRUNETTE DRIVE CASTLE HILL 2154", "locID": "LOC000080212652", "tech": "HFC", "upgrade": "NULL_NA"}}, {"type": "Feature", "geometry": {"type": "Point", "coordinates": [151.00438503, -33.74754526]}, "properties": {"name": "10 BRUSHFORD AVENUE CASTLE HILL 2154", "locID": "LOC000078609575", "tech": "HFC", "upgrade": "NULL_NA"}}, {"type": "Feature", "geometry": {"type": "Point", "coordinates": [150.99179448, -33.73091076]}, "properties": {"name": "10 CADMAN CRESCENT CASTLE HILL 2154", "locID": "LOC000109207674", "tech": "HFC", "upgrade": "NULL_NA"}}, {"type": "Feature", "geometry": {"type": "Point", "coordinates": [150.97182397, -33.71885847]}, "properties": {"name": "10 CALAIS PLACE CASTLE HILL 2154", "locID": "LOC000077247614", "tech": "FTTN", "upgrade": "FTTP_SA"}}, {"type": "Feature", "geometry": {"type": "Point", "coordinates": [151.00077479, -33.74214118]}, "properties": {"name": "10 CAMBEWARRA AVENUE CASTLE HILL 2154", "locID": "LOC000027111091", "tech": "HFC", "upgrade": "NULL_NA"}}, {"type": "Feature", "geometry": {"type": "Point", "coordinates": [151.01220693, -33.74625453]}, "properties": {"name": "10 CANDLEBUSH CRESCENT CASTLE HILL 2154", "locID": "LOC000096050417", "tech": "HFC", "upgrade": "NULL_NA"}}, {"type": "Feature", "geometry": {"type": "Point", "coordinates": [150.99362073, -33.71634641]}, "properties": {"name": "10 CANSDALE PLACE CASTLE HILL 2154", "locID": "LOC000010989498", "tech": "HFC", "upgrade": "NULL_NA"}}, {"type": "Feature", "geometry": {"type": "Point", "coordinates": [150.96904984, -33.71683968]}, "properties": {"name": "10 CAPIZZI PLACE CASTLE HILL 2154", "locID": "LOC000078866731", "tech": "FTTN", "upgrade": "NULL_NA"}}, {"type": "Feature", "geometry": {"type": "Point", "coordinates": [151.00036322, -33.74321116]}, "properties": {"name": "10 CARDIFF WAY CASTLE HILL 2154", "locID": "LOC000005949275", "tech": "HFC", "upgrade": "NULL_NA"}}, {"type": "Feature", "geometry": {"type": "Point", "coordinates": [151.02339692, -33.71972781]}, "properties": {"name": "10 CARINA PLACE CASTLE HILL 2154", "locID": "LOC000086491420", "tech": "HFC", "upgrade": "NULL_NA"}}, {"type": "Feature", "geometry": {"type": "Point", "coordinates": [151.00106499, -33.72437517]}, "properties": {"name": "10 CARINYAH CRESCENT CASTLE HILL 2154", "locID": "LOC000031882458", "tech": "HFC", "upgrade": "NULL_NA"}}, {"type": "Feature", "geometry": {"type": "Point", "coordinates": [150.99497287, -33.73747522]}, "properties": {"name": "10 CARNEGIE PLACE CASTLE HILL 2154", "locID": "LOC000063949930", "tech": "HFC", "upgrade": "NULL_NA"}}, {"type": "Feature", "geometry": {"type": "Point", "coordinates": [151.00241339, -33.72412707]}, "properties": {"name": "10 CARRAMARR ROAD CASTLE HILL 2154", "locID": "LOC000038002387", "tech": "HFC", "upgrade": "NULL_NA"}}, {"type": "Feature", "geometry": {"type": "Point", "coordinates": [151.00460888, -33.71616966]}, "properties": {"name": "10 CARRBRIDGE DRIVE CASTLE HILL 2154", "locID": "LOC000087866522", "tech": "HFC", "upgrade": "NULL_NA"}}, {"type": "Feature", "geometry": {"type": "Point", "coordinates": [150.98964594, -33.72751161]}, "properties": {"name": "10 CARRINGTON ROAD CASTLE HILL 2154", "locID": "LOC000086577437", "tech": "HFC", "upgrade": "NULL_NA"}}, {"type": "Feature", "geometry": {"type": "Point", "coordinates": [151.01707991, -33.73769509]}, "properties": {"name": "10 CASTLEWOOD DRIVE CASTLE HILL 2154", "locID": "LOC000057473209", "tech": "HFC", "upgrade": "NULL_NA"}}, {"type": "Feature", "geometry": {"type": "Point", "coordinates": [150.98161643, -33.72283936]}, "properties": {"name": "10 CEDAR GROVE CASTLE HILL 2154", "locID": "LOC000049759078", "tech": "HFC", "upgrade": "NULL_NA"}}, {"type": "Feature", "geometry": {"type": "Point", "coordinates": [150.97721137, -33.71541169]}, "properties": {"name": "10 CELESTE AVENUE CASTLE HILL 2154", "locID": "LOC000070505431", "tech": "HFC", "upgrade": "NULL_NA"}}, {"type": "Feature", "geometry": {"type": "Point", "coordinates": [150.99339194, -33.73028427]}, "properties": {"name": "10 CHAPMAN AVENUE CASTLE HILL 2154", "locID": "LOC000110070239", "tech": "HFC", "upgrade": "NULL_NA"}}, {"type": "Feature", "geometry": {"type": "Point", "coordinates": [151.01521732, -33.721084]}, "properties": {"name": "10 CHELSEA ROAD CASTLE HILL 2154", "locID": "LOC000111639449", "tech": "FTTN", "upgrade": "NULL_NA"}}, {"type": "Feature", "geometry": {"type": "Point", "coordinates": [151.01040249, -33.72794799]}, "properties": {"name": "10 CHELTENHAM CLOSE CASTLE HILL 2154", "locID": "LOC000070697722", "tech": "HFC", "upgrade": "NULL_NA"}}, {"type": "Feature", "geometry": {"type": "Point", "coordinates": [150.97425448, -33.72276912]}, "properties": {"name": "10 CHEPSTOW DRIVE CASTLE HILL 2154", "locID": "LOC000053629325", "tech": "FTTN", "upgrade": "FTTP_SA"}}, {"type": "Feature", "geometry": {"type": "Point", "coordinates": [151.02753716, -33.72000617]}, "properties": {"name": "10 CHILDREY PLACE CASTLE HILL 2154", "locID": "LOC000013026403", "tech": "FTTC", "upgrade": "FTTP_SA"}}, {"type": "Feature", "geometry": {"type": "Point", "coordinates": [150.99353198, -33.7218605]}, "properties": {"name": "10 CHILTERN CRESCENT CASTLE HILL 2154", "locID": "LOC000033041113", "tech": "HFC", "upgrade": "NULL_NA"}}, {"type": "Feature", "geometry": {"type": "Point", "coordinates": [151.00144017, -33.73976722]}, "properties": {"name": "10 CHURCH STREET CASTLE HILL 2154", "locID": "LOC000013069678", "tech": "HFC", "upgrade": "NULL_NA"}}, {"type": "Feature", "geometry": {"type": "Point", "coordinates": [150.9933711, -33.70909807]}, "properties": {"name": "10 CITADEL CRESCENT CASTLE HILL 2154", "locID": "LOC000040801658", "tech": "HFC", "upgrade": "NULL_NA"}}, {"type": "Feature", "geometry": {"type": "Point", "coordinates": [151.02104094, -33.72689171]}, "properties": {"name": "10 CLARKE DRIVE CASTLE HILL 2154", "locID": "LOC000051364230", "tech": "HFC", "upgrade": "NULL_NA"}}, {"type": "Feature", "geometry": {"type": "Point", "coordinates": [151.01136234, -33.72592421]}, "properties": {"name": "10 CLARKE PLACE CASTLE HILL 2154", "locID": "LOC000051794134", "tech": "HFC", "upgrade": "NULL_NA"}}, {"type": "Feature", "geometry": {"type": "Point", "coordinates": [151.00603258, -33.72588442]}, "properties": {"name": "10 COOLIBAH STREET CASTLE HILL 2154", "locID": "LOC000021309112", "tech": "HFC", "upgrade": "NULL_NA"}}, {"type": "Feature", "geometry": {"type": "Point", "coordinates": [150.99403171, -33.735762]}, "properties": {"name": "10 COOLONG STREET CASTLE HILL 2154", "locID": "LOC000089392040", "tech": "HFC", "upgrade": "NULL_NA"}}, {"type": "Feature", "geometry": {"type": "Point", "coordinates": [151.01281371, -33.74179413]}, "properties": {"name": "10 COOMALIE AVENUE CASTLE HILL 2154", "locID": "LOC000065263724", "tech": "HFC", "upgrade": "NULL_NA"}}, {"type": "Feature", "geometry": {"type": "Point", "coordinates": [151.00103762, -33.72671343]}, "properties": {"name": "10 COONARDOO PLACE CASTLE HILL 2154", "locID": "LOC000020648944", "tech": "HFC", "upgrade": "NULL_NA"}}, {"type": "Feature", "geometry": {"type": "Point", "coordinates": [151.01842229, -33.74307081]}, "properties": {"name": "10 COPPERLEAF PLACE CASTLE HILL 2154", "locID": "LOC000100004452", "tech": "HFC", "upgrade": "NULL_NA"}}, {"type": "Feature", "geometry": {"type": "Point", "coordinates": [151.0216312, -33.7161748]}, "properties": {"name": "10 COPPLESTONE PLACE CASTLE HILL 2154", "locID": "LOC000100174123", "tech": "FTTN", "upgrade": "FTTP_SA"}}, {"type": "Feature", "geometry": {"type": "Point", "coordinates": [150.9931709, -33.72248605]}, "properties": {"name": "10 COTSWOLD AVENUE CASTLE HILL 2154", "locID": "LOC000075592834", "tech": "HFC", "upgrade": "NULL_NA"}}, {"type": "Feature", "geometry": {"type": "Point", "coordinates": [151.01503322, -33.7215928]}, "properties": {"name": "10 COTTAGE STREET CASTLE HILL 2154", "locID": "LOC000094332912", "tech": "FTTN", "upgrade": "NULL_NA"}}, {"type": "Feature", "geometry": {"type": "Point", "coordinates": [150.98593296, -33.70955403]}, "properties": {"name": "10 COURTYARD PLACE CASTLE HILL 2154", "locID": "LOC000007137997", "tech": "HFC", "upgrade": "NULL_NA"}}, {"type": "Feature", "geometry": {"type": "Point", "coordinates": [151.00901106, -33.73446314]}, "properties": {"name": "10 CRANE ROAD CASTLE HILL 2154", "locID": "LOC000087891973", "tech": "HFC", "upgrade": "NULL_NA"}}, {"type": "Feature", "geometry": {"type": "Point", "coordinates": [151.00845619, -33.71514727]}, "properties": {"name": "10 CRINAN COURT CASTLE HILL 2154", "locID": "LOC000082209541", "tech": "HFC", "upgrade": "NULL_NA"}}, {"type": "Feature", "geometry": {"type": "Point", "coordinates": [150.97620975, -33.7228287]}, "properties": {"name": "10 CUBBY CLOSE CASTLE HILL 2154", "locID": "LOC000043974885", "tech": "HFC", "upgrade": "NULL_NA"}}, {"type": "Feature", "geometry": {"type": "Point", "coordinates": [150.99666975, -33.72130945]}, "properties": {"name": "10 CUMBERLAND AVENUE CASTLE HILL 2154", "locID": "LOC000005401206", "tech": "HFC", "upgrade": "NULL_NA"}}, {"type": "Feature", "geometry": {"type": "Point", "coordinates": [151.00090702, -33.74737331]}, "properties": {"name": "10 CYNTHIA AVENUE CASTLE HILL 2154", "locID": "LOC000023242820", "tech": "HFC", "upgrade": "NULL_NA"}}, {"type": "Feature", "geometry": {"type": "Point", "coordinates": [150.98886627, -33.70959507]}, "properties": {"name": "10 DAMSEL COURT CASTLE HILL 2154", "locID": "LOC000099194974", "tech": "HFC", "upgrade": "NULL_NA"}}, {"type": "Feature", "geometry": {"type": "Point", "coordinates": [151.01471028, -33.73406524]}, "properties": {"name": "10 DAN CRESCENT CASTLE HILL 2154", "locID": "LOC000042309396", "tech": "HFC", "upgrade": "NULL_NA"}}, {"type": "Feature", "geometry": {"type": "Point", "coordinates": [150.97679956, -33.71512884]}, "properties": {"name": "10 DANEHILL COURT CASTLE HILL 2154", "locID": "LOC000034276742", "tech": "HFC", "upgrade": "NULL_NA"}}, {"type": "Feature", "geometry": {"type": "Point", "coordinates": [150.99456097, -33.74444711]}, "properties": {"name": "10 DAPHNE AVENUE CASTLE HILL 2154", "locID": "LOC000101993976", "tech": "FTTC", "upgrade": "FTTP_SA"}}, {"type": "Feature", "geometry": {"type": "Point", "coordinates": [151.01524033, -33.73899785]}, "properties": {"name": "10 DARCEY ROAD CASTLE HILL 2154", "locID": "LOC000088713969", "tech": "HFC", "upgrade": "NULL_NA"}},