{"type": "FeatureCollection", "features": [{"type": "Feature", "geometry": {"type": "Point", "coordinates": [150.91016691, -33.91480915]}, "properties": {"name": "1 ANASTASIO ROAD LIVERPOOL 2170", "locID": "LOC000037419087", "tech": "FTTP", "upgrade": "NULL_NA"}}, {"type": "Feature", "geometry": {"type": "Point", "coordinates": [150.91290454, -33.92235478]}, "properties": {"name": "1 ANDERSON AVENUE LIVERPOOL 2170", "locID": "LOC000026539377", "tech": "FTTP", "upgrade": "NULL_NA"}}, {"type": "Feature", "geometry": {"type": "Point", "coordinates": [150.90534693, -33.93739964]}, "properties": {"name": "1 ANGELO AVENUE LIVERPOOL 2170", "locID": "LOC000016763147", "tech": "HFC", "upgrade": "NULL_NA"}}, {"type": "Feature", "geometry": {"type": "Point", "coordinates": [150.92736955, -33.92591696]}, "properties": {"name": "1 ATKINSON STREET LIVERPOOL 2170", "locID": "LOC000042763401", "tech": "FTTP", "upgrade": "NULL_NA"}}, {"type": "Feature", "geometry": {"type": "Point", "coordinates": [150.92223441, -33.91552151]}, "properties": {"name": "1 BATHURST STREET LIVERPOOL 2170", "locID": "LOC000074765946", "tech": "FTTP", "upgrade": "NULL_NA"}}, {"type": "Feature", "geometry": {"type": "Point", "coordinates": [150.91828616, -33.93524384]}, "properties": {"name": "1 BIRKDALE CRESCENT LIVERPOOL 2170", "locID": "LOC000064333587", "tech": "FTTP", "upgrade": "NULL_NA"}}, {"type": "Feature", "geometry": {"type": "Point", "coordinates": [150.91200342, -33.91206307]}, "properties": {"name": "1 BOSLEY AVENUE LIVERPOOL 2170", "locID": "LOC000192392397", "tech": "FTTP", "upgrade": "NULL_NA"}}, {"type": "Feature", "geometry": {"type": "Point", "coordinates": [150.91401848, -33.93601327]}, "properties": {"name": "1 BOUNDARY ROAD LIVERPOOL 2170", "locID": "LOC000110772553", "tech": "HFC", "upgrade": "NULL_NA"}}, {"type": "Feature", "geometry": {"type": "Point", "coordinates": [150.93008979, -33.91834171]}, "properties": {"name": "1 CAMPBELL STREET LIVERPOOL 2170", "locID": "LOC000009628048", "tech": "FTTB", "upgrade": "NULL_NA"}}, {"type": "Feature", "geometry": {"type": "Point", "coordinates": [150.91712313, -33.91923247]}, "properties": {"name": "1 CARBONI STREET LIVERPOOL 2170", "locID": "LOC000046118431", "tech": "FTTP", "upgrade": "NULL_NA"}}, {"type": "Feature", "geometry": {"type": "Point", "coordinates": [150.92096812, -33.91555268]}, "properties": {"name": "1 CASTLEREAGH STREET LIVERPOOL 2170", "locID": "LOC000135990512", "tech": "FTTP", "upgrade": "NULL_NA"}}, {"type": "Feature", "geometry": {"type": "Point", "coordinates": [150.9200286, -33.92789352]}, "properties": {"name": "1 CHARLES STREET LIVERPOOL 2170", "locID": "LOC000136119460", "tech": "FTTP", "upgrade": "NULL_NA"}}, {"type": "Feature", "geometry": {"type": "Point", "coordinates": [150.93024096, -33.92166277]}, "properties": {"name": "1 COLLEGE STREET LIVERPOOL 2170", "locID": "LOC000120361587", "tech": "FTTP", "upgrade": "NULL_NA"}}, {"type": "Feature", "geometry": {"type": "Point", "coordinates": [150.91675465, -33.93501957]}, "properties": {"name": "1 CONGRESSIONAL DRIVE LIVERPOOL 2170", "locID": "LOC000069611885", "tech": "FTTP", "upgrade": "NULL_NA"}}, {"type": "Feature", "geometry": {"type": "Point", "coordinates": [150.91947641, -33.91733897]}, "properties": {"name": "1 COPELAND STREET LIVERPOOL 2170", "locID": "LOC000088784515", "tech": "FTTP", "upgrade": "NULL_NA"}}, {"type": "Feature", "geometry": {"type": "Point", "coordinates": [150.90852564, -33.93662231]}, "properties": {"name": "1 CULLENS PLACE LIVERPOOL 2170", "locID": "LOC000035651802", "tech": "HFC", "upgrade": "NULL_NA"}}, {"type": "Feature", "geometry": {"type": "Point", "coordinates": [150.91843235, -33.93689873]}, "properties": {"name": "1 CYPRESS PLACE LIVERPOOL 2170", "locID": "LOC000029957578", "tech": "FTTP", "upgrade": "NULL_NA"}}, {"type": "Feature", "geometry": {"type": "Point", "coordinates": [150.90523354, -33.92603736]}, "properties": {"name": "1 DALE AVENUE LIVERPOOL 2170", "locID": "LOC000191387377", "tech": "FTTP", "upgrade": "NULL_NA"}}, {"type": "Feature", "geometry": {"type": "Point", "coordinates": [150.912824, -33.93312274]}, "properties": {"name": "1 DANALAM STREET LIVERPOOL 2170", "locID": "LOC000072905113", "tech": "HFC", "upgrade": "NULL_NA"}}, {"type": "Feature", "geometry": {"type": "Point", "coordinates": [150.9124773, -33.91437443]}, "properties": {"name": "1 EDITH AVENUE LIVERPOOL 2170", "locID": "LOC000088730685", "tech": "FTTP", "upgrade": "NULL_NA"}}, {"type": "Feature", "geometry": {"type": "Point", "coordinates": [150.9090084, -33.93256002]}, "properties": {"name": "1 EDWIN PLACE LIVERPOOL 2170", "locID": "LOC000013014940", "tech": "HFC", "upgrade": "NULL_NA"}}, {"type": "Feature", "geometry": {"type": "Point", "coordinates": [150.9294891, -33.92065235]}, "properties": {"name": "1 ELIZABETH STREET LIVERPOOL 2170", "locID": "LOC000178522106", "tech": "FTTN", "upgrade": "NULL_NA"}}, {"type": "Feature", "geometry": {"type": "Point", "coordinates": [150.9085969, -33.92694541]}, "properties": {"name": "1 FRANGIPANE AVENUE LIVERPOOL 2170", "locID": "LOC000137520022", "tech": "FTTP", "upgrade": "NULL_NA"}}, {"type": "Feature", "geometry": {"type": "Point", "coordinates": [150.90581636, -33.92235858]}, "properties": {"name": "1 GRACE STREET LIVERPOOL 2170", "locID": "LOC000016203285", "tech": "FTTP", "upgrade": "NULL_NA"}}, {"type": "Feature", "geometry": {"type": "Point", "coordinates": [150.91937073, -33.91354617]}, "properties": {"name": "1 GRIMSON CRESCENT LIVERPOOL 2170", "locID": "LOC000089246556", "tech": "FTTP", "upgrade": "NULL_NA"}}, {"type": "Feature", "geometry": {"type": "Point", "coordinates": [150.91386993, -33.91136972]}, "properties": {"name": "1 HINDMARSH ROAD LIVERPOOL 2170", "locID": "LOC000052042185", "tech": "FTTP", "upgrade": "NULL_NA"}}, {"type": "Feature", "geometry": {"type": "Point", "coordinates": [150.9121198, -33.92763695]}, "properties": {"name": "1 HOXTON PARK ROAD LIVERPOOL 2170", "locID": "LOC000152677231", "tech": "FTTP", "upgrade": "NULL_NA"}}, {"type": "Feature", "geometry": {"type": "Point", "coordinates": [150.9063176, -33.93377176]}, "properties": {"name": "1 IVES AVENUE LIVERPOOL 2170", "locID": "LOC000181951693", "tech": "HFC", "upgrade": "NULL_NA"}}, {"type": "Feature", "geometry": {"type": "Point", "coordinates": [150.90619882, -33.92242008]}, "properties": {"name": "1 KENNEDY STREET LIVERPOOL 2170", "locID": "LOC000049649231", "tech": "FTTP", "upgrade": "NULL_NA"}}, {"type": "Feature", "geometry": {"type": "Point", "coordinates": [150.90884213, -33.91746708]}, "properties": {"name": "1 KILLINGER AVENUE LIVERPOOL 2170", "locID": "LOC000069187594", "tech": "FTTP", "upgrade": "NULL_NA"}}, {"type": "Feature", "geometry": {"type": "Point", "coordinates": [150.91011611, -33.93461513]}, "properties": {"name": "1 LAUREL PLACE LIVERPOOL 2170", "locID": "LOC000084728226", "tech": "HFC", "upgrade": "NULL_NA"}}, {"type": "Feature", "geometry": {"type": "Point", "coordinates": [150.90855441, -33.9170516]}, "properties": {"name": "1 LEHMANN AVENUE LIVERPOOL 2170", "locID": "LOC000046813138", "tech": "FTTP", "upgrade": "NULL_NA"}}, {"type": "Feature", "geometry": {"type": "Point", "coordinates": [150.91625245, -33.91639256]}, "properties": {"name": "1 LEITZ STREET LIVERPOOL 2170", "locID": "LOC000075169166", "tech": "FTTP", "upgrade": "NULL_NA"}}, {"type": "Feature", "geometry": {"type": "Point", "coordinates": [150.91514545, -33.91487553]}, "properties": {"name": "1 LEWIS ROAD LIVERPOOL 2170", "locID": "LOC000092586581", "tech": "FTTP", "upgrade": "NULL_NA"}}, {"type": "Feature", "geometry": {"type": "Point", "coordinates": [150.91700733, -33.91558033]}, "properties": {"name": "1 MACKEN STREET LIVERPOOL 2170", "locID": "LOC000189240355", "tech": "FTTP", "upgrade": "NULL_NA"}}, {"type": "Feature", "geometry": {"type": "Point", "coordinates": [150.90758966, -33.92478332]}, "properties": {"name": "1 MAINSBRIDGE AVENUE LIVERPOOL 2170", "locID": "LOC000187872098", "tech": "FTTP", "upgrade": "NULL_NA"}}, {"type": "Feature", "geometry": {"type": "Point", "coordinates": [150.91116662, -33.91264936]}, "properties": {"name": "1 MARSDEN ROAD LIVERPOOL 2170", "locID": "LOC000093490639", "tech": "FTTP", "upgrade": "NULL_NA"}}, {"type": "Feature", "geometry": {"type": "Point", "coordinates": [150.90566194, -33.93535513]}, "properties": {"name": "1 MARY CRESCENT LIVERPOOL 2170", "locID": "LOC000074344274", "tech": "HFC", "upgrade": "NULL_NA"}}, {"type": "Feature", "geometry": {"type": "Point", "coordinates": [150.90382282, -33.92326243]}, "properties": {"name": "1 MARYVALE AVENUE LIVERPOOL 2170", "locID": "LOC000078767805", "tech": "FTTP", "upgrade": "NULL_NA"}}, {"type": "Feature", "geometry": {"type": "Point", "coordinates": [150.91515693, -33.91910535]}, "properties": {"name": "1 MAYBERRY CRESCENT LIVERPOOL 2170", "locID": "LOC000052152574", "tech": "FTTP", "upgrade": "NULL_NA"}}, {"type": "Feature", "geometry": {"type": "Point", "coordinates": [150.92073686, -33.93130871]}, "properties": {"name": "1 MCGOWEN CRESCENT LIVERPOOL 2170", "locID": "LOC000062054518", "tech": "FTTP", "upgrade": "NULL_NA"}}, {"type": "Feature", "geometry": {"type": "Point", "coordinates": [150.91290491, -33.91140194]}, "properties": {"name": "1 MCMAHON AVENUE LIVERPOOL 2170", "locID": "LOC000021390117", "tech": "FTTP", "upgrade": "NULL_NA"}}, {"type": "Feature", "geometry": {"type": "Point", "coordinates": [150.91376099, -33.90948213]}, "properties": {"name": "1 MEDLEY AVENUE LIVERPOOL 2170", "locID": "LOC000120353081", "tech": "FTTP", "upgrade": "NULL_NA"}}, {"type": "Feature", "geometry": {"type": "Point", "coordinates": [150.92207762, -33.92923393]}, "properties": {"name": "1 MILL ROAD LIVERPOOL 2170", "locID": "LOC000019867128", "tech": "FTTP", "upgrade": "NULL_NA"}}, {"type": "Feature", "geometry": {"type": "Point", "coordinates": [150.91183859, -33.92365644]}, "properties": {"name": "1 MURPHY AVENUE LIVERPOOL 2170", "locID": "LOC000057831403", "tech": "FTTP", "upgrade": "NULL_NA"}}, {"type": "Feature", "geometry": {"type": "Point", "coordinates": [150.92287557, -33.92006078]}, "properties": {"name": "1 NORTHUMBERLAND STREET LIVERPOOL 2170", "locID": "LOC000099270028", "tech": "FTTP", "upgrade": "NULL_NA"}}, {"type": "Feature", "geometry": {"type": "Point", "coordinates": [150.91854101, -33.91008403]}, "properties": {"name": "1 O'BRIEN PARADE LIVERPOOL 2170", "locID": "LOC000055133769", "tech": "FTTP", "upgrade": "NULL_NA"}}, {"type": "Feature", "geometry": {"type": "Point", "coordinates": [150.9101403, -33.92286498]}, "properties": {"name": "1 ORANA PLACE LIVERPOOL 2170", "locID": "LOC000093364141", "tech": "FTTP", "upgrade": "NULL_NA"}}, {"type": "Feature", "geometry": {"type": "Point", "coordinates": [150.91438268, -33.90864332]}, "properties": {"name": "1 ORANGE GROVE ROAD LIVERPOOL 2170", "locID": "LOC000120364225", "tech": "FTTP", "upgrade": "NULL_NA"}}, {"type": "Feature", "geometry": {"type": "Point", "coordinates": [150.91124293, -33.93212098]}, "properties": {"name": "1 PANETTA AVENUE LIVERPOOL 2170", "locID": "LOC000015037382", "tech": "HFC", "upgrade": "NULL_NA"}}, {"type": "Feature", "geometry": {"type": "Point", "coordinates": [150.91795072, -33.91734109]}, "properties": {"name": "1 PARK ROAD LIVERPOOL 2170", "locID": "LOC000011498703", "tech": "FTTP", "upgrade": "NULL_NA"}}, {"type": "Feature", "geometry": {"type": "Point", "coordinates": [150.91674362, -33.93122088]}, "properties": {"name": "1 PASSEFIELD STREET LIVERPOOL 2170", "locID": "LOC000074482383", "tech": "FTTP", "upgrade": "NULL_NA"}}, {"type": "Feature", "geometry": {"type": "Point", "coordinates": [150.91349097, -33.92923599]}, "properties": {"name": "1 PEARCE STREET LIVERPOOL 2170", "locID": "LOC000136219261", "tech": "FTTP", "upgrade": "NULL_NA"}}, {"type": "Feature", "geometry": {"type": "Point", "coordinates": [150.92592681, -33.92375306]}, "properties": {"name": "1 RAILWAY STREET LIVERPOOL 2170", "locID": "LOC000028272647", "tech": "FTTP", "upgrade": "NULL_NA"}}, {"type": "Feature", "geometry": {"type": "Point", "coordinates": [150.91512542, -33.934257]}, "properties": {"name": "1 REILLY STREET LIVERPOOL 2170", "locID": "LOC000065087925", "tech": "HFC", "upgrade": "NULL_NA"}}, {"type": "Feature", "geometry": {"type": "Point", "coordinates": [150.92489513, -33.9304066]}, "properties": {"name": "1 RIVERPARK DRIVE LIVERPOOL 2170", "locID": "LOC000070230584", "tech": "FTTP", "upgrade": "NULL_NA"}}, {"type": "Feature", "geometry": {"type": "Point", "coordinates": [150.91635446, -33.93207167]}, "properties": {"name": "1 ROSE STREET LIVERPOOL 2170", "locID": "LOC000063443521", "tech": "FTTP", "upgrade": "NULL_NA"}}, {"type": "Feature", "geometry": {"type": "Point", "coordinates": [150.91039351, -33.9163245]}, "properties": {"name": "1 ROSLYN STREET LIVERPOOL 2170", "locID": "LOC000069892968", "tech": "FTTP", "upgrade": "NULL_NA"}}, {"type": "Feature", "geometry": {"type": "Point", "coordinates": [150.91779986, -33.9150058]}, "properties": {"name": "1 SAUNDERS AVENUE LIVERPOOL 2170", "locID": "LOC000052214146", "tech": "FTTP", "upgrade": "NULL_NA"}}, {"type": "Feature", "geometry": {"type": "Point", "coordinates": [150.92118352, -33.91792285]}, "properties": {"name": "1 SECANT STREET LIVERPOOL 2170", "locID": "LOC000013772697", "tech": "FTTP", "upgrade": "NULL_NA"}}, {"type": "Feature", "geometry": {"type": "Point", "coordinates": [150.90856503, -33.92482873]}, "properties": {"name": "1 SMITH CRESCENT LIVERPOOL 2170", "locID": "LOC000054944527", "tech": "FTTP", "upgrade": "NULL_NA"}}, {"type": "Feature", "geometry": {"type": "Point", "coordinates": [150.92483261, -33.92587796]}, "properties": {"name": "1 SPEED STREET LIVERPOOL 2170", "locID": "LOC000141731955", "tech": "FTTP", "upgrade": "NULL_NA"}}, {"type": "Feature", "geometry": {"type": "Point", "coordinates": [150.91744947, -33.90886267]}, "properties": {"name": "1 ST ANNES PLACE LIVERPOOL 2170", "locID": "LOC000015460979", "tech": "FTTP", "upgrade": "NULL_NA"}}, {"type": "Feature", "geometry": {"type": "Point", "coordinates": [150.90810297, -33.92028266]}, "properties": {"name": "1 STANTON STREET LIVERPOOL 2170", "locID": "LOC000136194771", "tech": "FTTP", "upgrade": "NULL_NA"}}, {"type": "Feature", "geometry": {"type": "Point", "coordinates": [150.9224325, -33.92636555]}, "properties": {"name": "1 TERMINUS STREET LIVERPOOL 2170", "locID": "LOC000055888284", "tech": "FTTP", "upgrade": "NULL_NA"}}, {"type": "Feature", "geometry": {"type": "Point", "coordinates": [150.9271746, -33.91718266]}, "properties": {"name": "1 TINDALL AVENUE LIVERPOOL 2170", "locID": "LOC000025519790", "tech": "FTTC", "upgrade": "NULL_NA"}}, {"type": "Feature", "geometry": {"type": "Point", "coordinates": [150.90898044, -33.92401436]}, "properties": {"name": "1 TOBRUK AVENUE LIVERPOOL 2170", "locID": "LOC000136192575", "tech": "FTTP", "upgrade": "NULL_NA"}}, {"type": "Feature", "geometry": {"type": "Point", "coordinates": [150.91773815, -33.91122348]}, "properties": {"name": "1 VINCENT AVENUE LIVERPOOL 2170", "locID": "LOC000180290488", "tech": "FTTP", "upgrade": "NULL_NA"}}, {"type": "Feature", "geometry": {"type": "Point", "coordinates": [150.91541293, -33.91288662]}, "properties": {"name": "1 VIOLET AVENUE LIVERPOOL 2170", "locID": "LOC000019773531", "tech": "FTTP", "upgrade": "NULL_NA"}}, {"type": "Feature", "geometry": {"type": "Point", "coordinates": [150.91748549, -33.90953634]}, "properties": {"name": "1 WILDMAN AVENUE LIVERPOOL 2170", "locID": "LOC000035587356", "tech": "FTTP", "upgrade": "NULL_NA"}}, {"type": "Feature", "geometry": {"type": "Point", "coordinates": [150.91007758, -33.91520716]}, "properties": {"name": "1 WOODLANDS ROAD LIVERPOOL 2170", "locID": "LOC000048462265", "tech": "FTTP", "upgrade": "NULL_NA"}}, {"type": "Feature", "geometry": {"type": "Point", "coordinates": [150.92843283, -33.92221649]}, "properties": {"name": "1-15 MOORE STREET LIVERPOOL 2170", "locID": "LOC000136130659", "tech": "FTTP", "upgrade": "NULL_NA"}}, {"type": "Feature", "geometry": {"type": "Point", "coordinates": [150.92483261, -33.92587796]}, "properties": {"name": "1-3 SPEED STREET LIVERPOOL 2170", "locID": "LOC000141732192", "tech": "FTTP", "upgrade": "NULL_NA"}}, {"type": "Feature", "geometry": {"type": "Point", "coordinates": [150.9271746, -33.91718266]}, "properties": {"name": "1-3 TINDALL AVENUE LIVERPOOL 2170", "locID": "LOC000025354116", "tech": "FTTC", "upgrade": "NULL_NA"}}, {"type": "Feature", "geometry": {"type": "Point", "coordinates": [150.92264609, -33.92460505]}, "properties": {"name": "1-37 MEMORIAL AVENUE LIVERPOOL 2170", "locID": "LOC000052088362", "tech": "FTTP", "upgrade": "NULL_NA"}}, {"type": "Feature", "geometry": {"type": "Point", "coordinates": [150.90958347, -33.91867009]}, "properties": {"name": "1-7 MCLEAN STREET LIVERPOOL 2170", "locID": "LOC000013273733", "tech": "FTTP", "upgrade": "NULL_NA"}}, {"type": "Feature", "geometry": {"type": "Point", "coordinates": [150.92843283, -33.92221649]}, "properties": {"name": "1-7 MOORE STREET LIVERPOOL 2170", "locID": "LOC000140237948", "tech": "FTTP", "upgrade": "NULL_NA"}}, {"type": "Feature", "geometry": {"type": "Point", "coordinates": [150.9271746, -33.91718266]}, "properties": {"name": "1-9 TINDALL AVENUE LIVERPOOL 2170", "locID": "LOC000025354116", "tech": "FTTC", "upgrade": "NULL_NA"}}, {"type": "Feature", "geometry": {"type": "Point", "coordinates": [150.90919466, -33.91466434]}, "properties": {"name": "10 ANASTASIO ROAD LIVERPOOL 2170", "locID": "LOC000090581510", "tech": "FTTP", "upgrade": "NULL_NA"}}, {"type": "Feature", "geometry": {"type": "Point", "coordinates": [150.91194442, -33.92264341]}, "properties": {"name": "10 ANDERSON AVENUE LIVERPOOL 2170", "locID": "LOC000052858306", "tech": "FTTP", "upgrade": "NULL_NA"}}, {"type": "Feature", "geometry": {"type": "Point", "coordinates": [150.91064545, -33.92434905]}, "properties": {"name": "10 ANEBO STREET LIVERPOOL 2170", "locID": "LOC000016773469", "tech": "FTTP", "upgrade": "NULL_NA"}}, {"type": "Feature", "geometry": {"type": "Point", "coordinates": [150.90507851, -33.93775011]}, "properties": {"name": "10 ANGELO AVENUE LIVERPOOL 2170", "locID": "LOC000087492633", "tech": "HFC", "upgrade": "NULL_NA"}}, {"type": "Feature", "geometry": {"type": "Point", "coordinates": [150.92284865, -33.91607912]}, "properties": {"name": "10 BATHURST STREET LIVERPOOL 2170", "locID": "LOC000135997373", "tech": "FTTP", "upgrade": "NULL_NA"}}, {"type": "Feature", "geometry": {"type": "Point", "coordinates": [150.91910087, -33.93484033]}, "properties": {"name": "10 BIRKDALE CRESCENT LIVERPOOL 2170", "locID": "LOC000081963374", "tech": "FTTP", "upgrade": "NULL_NA"}}, {"type": "Feature", "geometry": {"type": "Point", "coordinates": [150.9126631, -33.91188261]}, "properties": {"name": "10 BOSLEY AVENUE LIVERPOOL 2170", "locID": "LOC000026436654", "tech": "FTTP", "upgrade": "NULL_NA"}}, {"type": "Feature", "geometry": {"type": "Point", "coordinates": [150.90582077, -33.92010497]}, "properties": {"name": "10 BUNCE ROAD LIVERPOOL 2170", "locID": "LOC000099860421", "tech": "FTTP", "upgrade": "NULL_NA"}}, {"type": "Feature", "geometry": {"type": "Point", "coordinates": [150.91617359, -33.91949612]}, "properties": {"name": "10 CARBONI STREET LIVERPOOL 2170", "locID": "LOC000007309949", "tech": "FTTP", "upgrade": "NULL_NA"}}, {"type": "Feature", "geometry": {"type": "Point", "coordinates": [150.91851615, -33.92016137]}, "properties": {"name": "10 COLLIMORE AVENUE LIVERPOOL 2170", "locID": "LOC000105614883", "tech": "FTTP", "upgrade": "NULL_NA"}}, {"type": "Feature", "geometry": {"type": "Point", "coordinates": [150.91687827, -33.93582538]}, "properties": {"name": "10 CONGRESSIONAL DRIVE LIVERPOOL 2170", "locID": "LOC000054363727", "tech": "FTTP", "upgrade": "NULL_NA"}}, {"type": "Feature", "geometry": {"type": "Point", "coordinates": [150.92051644, -33.91619981]}, "properties": {"name": "10 COPELAND STREET LIVERPOOL 2170", "locID": "LOC000098495648", "tech": "FTTP", "upgrade": "NULL_NA"}}, {"type": "Feature", "geometry": {"type": "Point", "coordinates": [150.91206437, -33.93255403]}, "properties": {"name": "10 COXS AVENUE LIVERPOOL 2170", "locID": "LOC000087569244", "tech": "HFC", "upgrade": "NULL_NA"}}, {"type": "Feature", "geometry": {"type": "Point", "coordinates": [150.90880363, -33.93603694]}, "properties": {"name": "10 CULLENS AVENUE LIVERPOOL 2170", "locID": "LOC000078655764", "tech": "HFC", "upgrade": "NULL_NA"}}, {"type": "Feature", "geometry": {"type": "Point", "coordinates": [150.91811227, -33.93604403]}, "properties": {"name": "10 CYPRESS PLACE LIVERPOOL 2170", "locID": "LOC000006317230", "tech": "FTTP", "upgrade": "NULL_NA"}}, {"type": "Feature", "geometry": {"type": "Point", "coordinates": [150.90462358, -33.92643095]}, "properties": {"name": "10 DALE AVENUE LIVERPOOL 2170", "locID": "LOC000096493855", "tech": "FTTP", "upgrade": "NULL_NA"}}, {"type": "Feature", "geometry": {"type": "Point", "coordinates": [150.91218961, -33.93347159]}, "properties": {"name": "10 DANALAM STREET LIVERPOOL 2170", "locID": "LOC000023122334", "tech": "HFC", "upgrade": "NULL_NA"}}, {"type": "Feature", "geometry": {"type": "Point", "coordinates": [150.91706756, -33.93731868]}, "properties": {"name": "10 DEERWOOD AVENUE LIVERPOOL 2170", "locID": "LOC000095767902", "tech": "FTTP", "upgrade": "NULL_NA"}}, {"type": "Feature", "geometry": {"type": "Point", "coordinates": [150.91180195, -33.91348301]}, "properties": {"name": "10 EDITH AVENUE LIVERPOOL 2170", "locID": "LOC000043899340", "tech": "FTTP", "upgrade": "NULL_NA"}}, {"type": "Feature", "geometry": {"type": "Point", "coordinates": [150.92676989, -33.92055123]}, "properties": {"name": "10 ELIZABETH STREET LIVERPOOL 2170", "locID": "LOC000092475860", "tech": "FTTP", "upgrade": "NULL_NA"}}, {"type": "Feature", "geometry": {"type": "Point", "coordinates": [150.90695881, -33.92335201]}, "properties": {"name": "10 FERRINGTON CRESCENT LIVERPOOL 2170", "locID": "LOC000087559933", "tech": "FTTP", "upgrade": "NULL_NA"}}, {"type": "Feature", "geometry": {"type": "Point", "coordinates": [150.90911043, -33.91669564]}, "properties": {"name": "10 FLOWERDALE ROAD LIVERPOOL 2170", "locID": "LOC000016404983", "tech": "FTTP", "upgrade": "NULL_NA"}}, {"type": "Feature", "geometry": {"type": "Point", "coordinates": [150.92655685, -33.91588169]}, "properties": {"name": "10 GEORGE STREET LIVERPOOL 2170", "locID": "LOC000009704487", "tech": "FTTC", "upgrade": "FTTP_SA"}}, {"type": "Feature", "geometry": {"type": "Point", "coordinates": [150.90535332, -33.92163178]}, "properties": {"name": "10 GRACE STREET LIVERPOOL 2170", "locID": "LOC000048509973", "tech": "FTTP", "upgrade": "NULL_NA"}}, {"type": "Feature", "geometry": {"type": "Point", "coordinates": [150.91910683, -33.91443039]}, "properties": {"name": "10 GRIMSON CRESCENT LIVERPOOL 2170", "locID": "LOC000058693173", "tech": "FTTP", "upgrade": "NULL_NA"}}, {"type": "Feature", "geometry": {"type": "Point", "coordinates": [150.9127699, -33.92272978]}, "properties": {"name": "10 HILLIER ROAD LIVERPOOL 2170", "locID": "LOC000136227967", "tech": "FTTP", "upgrade": "NULL_NA"}}, {"type": "Feature", "geometry": {"type": "Point", "coordinates": [150.91639418, -33.92895786]}, "properties": {"name": "10 HOXTON PARK ROAD LIVERPOOL 2170", "locID": "LOC000186023225", "tech": "FTTP", "upgrade": "NULL_NA"}}, {"type": "Feature", "geometry": {"type": "Point", "coordinates": [150.90680961, -33.92168285]}, "properties": {"name": "10 KENNEDY STREET LIVERPOOL 2170", "locID": "LOC000098480583", "tech": "FTTP", "upgrade": "NULL_NA"}}, {"type": "Feature", "geometry": {"type": "Point", "coordinates": [150.91025635, -33.92493506]}, "properties": {"name": "10 KEYS PLACE LIVERPOOL 2170", "locID": "LOC000017588597", "tech": "FTTP", "upgrade": "NULL_NA"}}, {"type": "Feature", "geometry": {"type": "Point", "coordinates": [150.90759831, -33.91684191]}, "properties": {"name": "10 KILLINGER AVENUE LIVERPOOL 2170", "locID": "LOC000061742651", "tech": "FTTP", "upgrade": "NULL_NA"}}, {"type": "Feature", "geometry": {"type": "Point", "coordinates": [150.90813603, -33.91642683]}, "properties": {"name": "10 LEHMANN AVENUE LIVERPOOL 2170", "locID": "LOC000041322134", "tech": "FTTP", "upgrade": "NULL_NA"}}, {"type": "Feature", "geometry": {"type": "Point", "coordinates": [150.9100445, -33.91398142]}, "properties": {"name": "10 LIGATO PLACE LIVERPOOL 2170", "locID": "LOC000027330182", "tech": "FTTP", "upgrade": "NULL_NA"}}, {"type": "Feature", "geometry": {"type": "Point", "coordinates": [150.90674144, -33.9251302]}, "properties": {"name": "10 MAINSBRIDGE AVENUE LIVERPOOL 2170", "locID": "LOC000053220249", "tech": "FTTP", "upgrade": "NULL_NA"}}, {"type": "Feature", "geometry": {"type": "Point", "coordinates": [150.91056204, -33.92574283]}, "properties": {"name": "10 MARKELL PLACE LIVERPOOL 2170", "locID": "LOC000013965966", "tech": "FTTP", "upgrade": "NULL_NA"}}, {"type": "Feature", "geometry": {"type": "Point", "coordinates": [150.91192233, -33.91264527]}, "properties": {"name": "10 MARSDEN ROAD LIVERPOOL 2170", "locID": "LOC000088619770", "tech": "FTTP", "upgrade": "NULL_NA"}}, {"type": "Feature", "geometry": {"type": "Point", "coordinates": [150.90591915, -33.93669477]}, "properties": {"name": "10 MARY CRESCENT LIVERPOOL 2170", "locID": "LOC000063247520", "tech": "HFC", "upgrade": "NULL_NA"}}, {"type": "Feature", "geometry": {"type": "Point", "coordinates": [150.90475435, -33.92375842]}, "properties": {"name": "10 MARYVALE AVENUE LIVERPOOL 2170", "locID": "LOC000031799506", "tech": "FTTP", "upgrade": "NULL_NA"}}, {"type": "Feature", "geometry": {"type": "Point", "coordinates": [150.91420256, -33.91961761]}, "properties": {"name": "10 MAYBERRY CRESCENT LIVERPOOL 2170", "locID": "LOC000028920030", "tech": "FTTP", "upgrade": "NULL_NA"}}, {"type": "Feature", "geometry": {"type": "Point", "coordinates": [150.92130199, -33.93202396]}, "properties": {"name": "10 MCGOWEN CRESCENT LIVERPOOL 2170", "locID": "LOC000014916881", "tech": "FTTP", "upgrade": "NULL_NA"}}, {"type": "Feature", "geometry": {"type": "Point", "coordinates": [150.91348986, -33.91188214]}, "properties": {"name": "10 MCMAHON AVENUE LIVERPOOL 2170", "locID": "LOC000008105281", "tech": "FTTP", "upgrade": "NULL_NA"}}, {"type": "Feature", "geometry": {"type": "Point", "coordinates": [150.92111192, -33.92974532]}, "properties": {"name": "10 MILL ROAD LIVERPOOL 2170", "locID": "LOC000045835248", "tech": "FTTP", "upgrade": "NULL_NA"}}, {"type": "Feature", "geometry": {"type": "Point", "coordinates": [150.91605735, -33.93545195]}, "properties": {"name": "10 MONTECLAIR AVENUE LIVERPOOL 2170", "locID": "LOC000065284549", "tech": "FTTP", "upgrade": "NULL_NA"}}, {"type": "Feature", "geometry": {"type": "Point", "coordinates": [150.91208759, -33.9243116]}, "properties": {"name": "10 MURPHY AVENUE LIVERPOOL 2170", "locID": "LOC000014165099", "tech": "FTTP", "upgrade": "NULL_NA"}}, {"type": "Feature", "geometry": {"type": "Point", "coordinates": [150.92015441, -33.92605165]}, "properties": {"name": "10 NORFOLK STREET LIVERPOOL 2170", "locID": "LOC000181631015", "tech": "FTTP", "upgrade": "NULL_NA"}}, {"type": "Feature", "geometry": {"type": "Point", "coordinates": [150.91744505, -33.91083511]}, "properties": {"name": "10 O'BRIEN PARADE LIVERPOOL 2170", "locID": "LOC000023230421", "tech": "FTTP", "upgrade": "NULL_NA"}}, {"type": "Feature", "geometry": {"type": "Point", "coordinates": [150.91768956, -33.9361457]}, "properties": {"name": "10 OAKBORNE ROAD LIVERPOOL 2170", "locID": "LOC000021536742", "tech": "FTTP", "upgrade": "NULL_NA"}}, {"type": "Feature", "geometry": {"type": "Point", "coordinates": [150.91030538, -33.93239171]}, "properties": {"name": "10 PANETTA AVENUE LIVERPOOL 2170", "locID": "LOC000014605153", "tech": "HFC", "upgrade": "NULL_NA"}}, {"type": "Feature", "geometry": {"type": "Point", "coordinates": [150.91630283, -33.91786045]}, "properties": {"name": "10 PARK ROAD LIVERPOOL 2170", "locID": "LOC000057489592", "tech": "FTTP", "upgrade": "NULL_NA"}}, {"type": "Feature", "geometry": {"type": "Point", "coordinates": [150.91562823, -33.931598]}, "properties": {"name": "10 PASSEFIELD STREET LIVERPOOL 2170", "locID": "LOC000011477408", "tech": "FTTP", "upgrade": "NULL_NA"}}, {"type": "Feature", "geometry": {"type": "Point", "coordinates": [150.91574066, -33.92979826]}, "properties": {"name": "10 PEARCE STREET LIVERPOOL 2170", "locID": "LOC000099716752", "tech": "FTTP", "upgrade": "NULL_NA"}}, {"type": "Feature", "geometry": {"type": "Point", "coordinates": [150.90809424, -33.9193914]}, "properties": {"name": "10 PHILLIP STREET LIVERPOOL 2170", "locID": "LOC000023716308", "tech": "FTTP", "upgrade": "NULL_NA"}}, {"type": "Feature", "geometry": {"type": "Point", "coordinates": [150.92599093, -33.92453659]}, "properties": {"name": "10 RAILWAY STREET LIVERPOOL 2170", "locID": "LOC000137407959", "tech": "FTTP", "upgrade": "NULL_NA"}}, {"type": "Feature", "geometry": {"type": "Point", "coordinates": [150.9085898, -33.93241221]}, "properties": {"name": "10 RAINE AVENUE LIVERPOOL 2170", "locID": "LOC000084051688", "tech": "HFC", "upgrade": "NULL_NA"}}, {"type": "Feature", "geometry": {"type": "Point", "coordinates": [150.91385874, -33.93506639]}, "properties": {"name": "10 REILLY STREET LIVERPOOL 2170", "locID": "LOC000077292444", "tech": "HFC", "upgrade": "NULL_NA"}}, {"type": "Feature", "geometry": {"type": "Point", "coordinates": [150.90408122, -33.92539034]}, "properties": {"name": "10 ROLAND AVENUE LIVERPOOL 2170", "locID": "LOC000017514616", "tech": "FTTP", "upgrade": "NULL_NA"}}, {"type": "Feature", "geometry": {"type": "Point", "coordinates": [150.91083196, -33.91719605]}, "properties": {"name": "10 ROSLYN STREET LIVERPOOL 2170", "locID": "LOC000027143880", "tech": "FTTP", "upgrade": "NULL_NA"}}, {"type": "Feature", "geometry": {"type": "Point", "coordinates": [150.91825447, -33.91114739]}, "properties": {"name": "10 ROTARY STREET LIVERPOOL 2170", "locID": "LOC000099746564", "tech": "FTTP", "upgrade": "NULL_NA"}}, {"type": "Feature", "geometry": {"type": "Point", "coordinates": [150.9182544, -33.91569983]}, "properties": {"name": "10 SAUNDERS AVENUE LIVERPOOL 2170", "locID": "LOC000052087155", "tech": "FTTP", "upgrade": "NULL_NA"}}, {"type": "Feature", "geometry": {"type": "Point", "coordinates": [150.9089562, -33.92540859]}, "properties": {"name": "10 SMITH CRESCENT LIVERPOOL 2170", "locID": "LOC000073723299", "tech": "FTTP", "upgrade": "NULL_NA"}}, {"type": "Feature", "geometry": {"type": "Point", "coordinates": [150.91790937, -33.9085403]}, "properties": {"name": "10 ST ANNES PLACE LIVERPOOL 2170", "locID": "LOC000113325646", "tech": "FTTP", "upgrade": "NULL_NA"}}, {"type": "Feature", "geometry": {"type": "Point", "coordinates": [150.90364218, -33.92440114]}, "properties": {"name": "10 ST PAULS CRESCENT LIVERPOOL 2170", "locID": "LOC000012168153", "tech": "FTTP", "upgrade": "NULL_NA"}}, {"type": "Feature", "geometry": {"type": "Point", "coordinates": [150.90772293, -33.92142024]}, "properties": {"name": "10 STANTON STREET LIVERPOOL 2170", "locID": "LOC000061248646", "tech": "FTTP", "upgrade": "NULL_NA"}}, {"type": "Feature", "geometry": {"type": "Point", "coordinates": [150.91347004, -33.93341322]}, "properties": {"name": "10 THORN STREET LIVERPOOL 2170", "locID": "LOC000040315511", "tech": "HFC", "upgrade": "NULL_NA"}}, {"type": "Feature", "geometry": {"type": "Point", "coordinates": [150.90975063, -33.9244536]}, "properties": {"name": "10 TOBRUK AVENUE LIVERPOOL 2170", "locID": "LOC000173382498", "tech": "FTTP", "upgrade": "NULL_NA"}}, {"type": "Feature", "geometry": {"type": "Point", "coordinates": [150.90666309, -33.93645389]}, "properties": {"name": "10 TULLY AVENUE LIVERPOOL 2170", "locID": "LOC000008224388", "tech": "HFC", "upgrade": "NULL_NA"}}, {"type": "Feature", "geometry": {"type": "Point", "coordinates": [150.9167504, -33.91168291]}, "properties": {"name": "10 VINCENT AVENUE LIVERPOOL 2170", "locID": "LOC000010529489", "tech": "FTTP", "upgrade": "NULL_NA"}}, {"type": "Feature", "geometry": {"type": "Point", "coordinates": [150.91614742, -33.91331544]}, "properties": {"name": "10 VIOLET AVENUE LIVERPOOL 2170", "locID": "LOC000031369457", "tech": "FTTP", "upgrade": "NULL_NA"}}, {"type": "Feature", "geometry": {"type": "Point", "coordinates": [150.91677507, -33.91004625]}, "properties": {"name": "10 WILDMAN AVENUE LIVERPOOL 2170", "locID": "LOC000033942600", "tech": "FTTP", "upgrade": "NULL_NA"}}, {"type": "Feature", "geometry": {"type": "Point", "coordinates": [150.91139507, -33.91502778]}, "properties": {"name": "10 WOODLANDS ROAD LIVERPOOL 2170", "locID": "LOC000108343398", "tech": "FTTP", "upgrade": "NULL_NA"}}, {"type": "Feature", "geometry": {"type": "Point", "coordinates": [150.9069162, -33.92871058]}, "properties": {"name": "10-12 CALABRO AVENUE LIVERPOOL 2170", "locID": "LOC000137448665", "tech": "FTTP", "upgrade": "NULL_NA"}}, {"type": "Feature", "geometry": {"type": "Point", "coordinates": [150.91575705, -33.91579141]}, "properties": {"name": "10-12 LEWIS ROAD LIVERPOOL 2170", "locID": "LOC000040618487", "tech": "FTTP", "upgrade": "NULL_NA"}}, {"type": "Feature", "geometry": {"type": "Point", "coordinates": [150.9266672, -33.91728419]}, "properties": {"name": "10-12 TINDALL AVENUE LIVERPOOL 2170", "locID": "LOC000025048668", "tech": "FTTC", "upgrade": "NULL_NA"}}, {"type": "Feature", "geometry": {"type": "Point", "coordinates": [150.92158789, -33.91628922]}, "properties": {"name": "10-16 CASTLEREAGH STREET LIVERPOOL 2170", "locID": "LOC000139814926", "tech": "FTTP", "upgrade": "NULL_NA"}}, {"type": "Feature", "geometry": {"type": "Point", "coordinates": [150.91433788, -33.93050002]}, "properties": {"name": "100 ATKINSON STREET LIVERPOOL 2170", "locID": "LOC000032979303", "tech": "FTTP", "upgrade": "NULL_NA"}}, {"type": "Feature", "geometry": {"type": "Point", "coordinates": [150.91976333, -33.92620941]}, "properties": {"name": "100 CASTLEREAGH STREET LIVERPOOL 2170", "locID": "LOC000180128179", "tech": "FTTP", "upgrade": "NULL_NA"}}, {"type": "Feature", "geometry": {"type": "Point", "coordinates": [150.91838658, -33.92535948]}, "properties": {"name": "100 COPELAND STREET LIVERPOOL 2170", "locID": "LOC000028244625", "tech": "FTTP", "upgrade": "NULL_NA"}}, {"type": "Feature", "geometry": {"type": "Point", "coordinates": [150.91366912, -33.91849551]}, "properties": {"name": "100 ELIZABETH DRIVE LIVERPOOL 2170", "locID": "LOC000023265817", "tech": "FTTP", "upgrade": "NULL_NA"}}, {"type": "Feature", "geometry": {"type": "Point", "coordinates": [150.90782776, -33.92366484]}, "properties": {"name": "100 FLOWERDALE ROAD LIVERPOOL 2170", "locID": "LOC000058908923", "tech": "FTTP", "upgrade": "NULL_NA"}}, {"type": "Feature", "geometry": {"type": "Point", "coordinates": [150.92193446, -33.92571265]}, "properties": {"name": "100 MACQUARIE STREET LIVERPOOL 2170", "locID": "LOC000173196917", "tech": "FTTP", "upgrade": "NULL_NA"}}, {"type": "Feature", "geometry": {"type": "Point", "coordinates": [150.91267982, -33.92500723]}, "properties": {"name": "100 MEMORIAL AVENUE LIVERPOOL 2170", "locID": "LOC000136200403", "tech": "FTTP", "upgrade": "NULL_NA"}}, {"type": "Feature", "geometry": {"type": "Point", "coordinates": [150.92901687, -33.92285087]}, "properties": {"name": "100 MOORE STREET LIVERPOOL 2170", "locID": "LOC000135976726", "tech": "FTTP", "upgrade": "NULL_NA"}}, {"type": "Feature", "geometry": {"type": "Point", "coordinates": [150.92206685, -33.9267844]}, "properties": {"name": "100 TERMINUS STREET LIVERPOOL 2170", "locID": "LOC000146870839", "tech": "FTTP", "upgrade": "NULL_NA"}}, {"type": "Feature", "geometry": {"type": "Point", "coordinates": [150.91460104, -33.93001058]}, "properties": {"name": "101 ATKINSON STREET LIVERPOOL 2170", "locID": "LOC000057170937", "tech": "FTTP", "upgrade": "NULL_NA"}}, {"type": "Feature", "geometry": {"type": "Point", "coordinates": [150.91925773, -33.92452115]}, "properties": {"name": "101 CASTLEREAGH STREET LIVERPOOL 2170", "locID": "LOC000075427831", "tech": "FTTP", "upgrade": "NULL_NA"}}, {"type": "Feature", "geometry": {"type": "Point", "coordinates": [150.91900812, -33.93550191]}, "properties": {"name": "101 CONGRESSIONAL DRIVE LIVERPOOL 2170", "locID": "LOC000089400878", "tech": "FTTP", "upgrade": "NULL_NA"}}, {"type": "Feature", "geometry": {"type": "Point", "coordinates": [150.90832575, -33.92376355]}, "properties": {"name": "101 FLOWERDALE ROAD LIVERPOOL 2170", "locID": "LOC000005502507", "tech": "FTTP", "upgrade": "NULL_NA"}}, {"type": "Feature", "geometry": {"type": "Point", "coordinates": [150.90455829, -33.92678189]}, "properties": {"name": "101 HOXTON PARK ROAD LIVERPOOL 2170", "locID": "LOC000120371707", "tech": "FTTP", "upgrade": "NULL_NA"}}, {"type": "Feature", "geometry": {"type": "Point", "coordinates": [150.91130062, -33.91054706]}, "properties": {"name": "101 MEDLEY AVENUE LIVERPOOL 2170", "locID": "LOC000020880583", "tech": "FTTP", "upgrade": "NULL_NA"}}, {"type": "Feature", "geometry": {"type": "Point", "coordinates": [150.92201566, -33.92211008]}, "properties": {"name": "101 MOORE STREET LIVERPOOL 2170", "locID": "LOC000140955029", "tech": "FTTP", "upgrade": "NULL_NA"}}, {"type": "Feature", "geometry": {"type": "Point", "coordinates": [150.91860654, -33.91117253]}, "properties": {"name": "101 ORANGE GROVE ROAD LIVERPOOL 2170", "locID": "LOC000051924991", "tech": "FTTP", "upgrade": "NULL_NA"}}, {"type": "Feature", "geometry": {"type": "Point", "coordinates": [150.91476794, -33.91498055]}, "properties": {"name": "101 WOODLANDS ROAD LIVERPOOL 2170", "locID": "LOC000087327971", "tech": "FTTP", "upgrade": "NULL_NA"}}, {"type": "Feature", "geometry": {"type": "Point", "coordinates": [150.9141755, -33.9304781]}, "properties": {"name": "102 ATKINSON STREET LIVERPOOL 2170", "locID": "LOC000072556121", "tech": "FTTP", "upgrade": "NULL_NA"}}, {"type": "Feature", "geometry": {"type": "Point", "coordinates": [150.92777654, -33.9197426]}, "properties": {"name": "102 BIGGE STREET LIVERPOOL 2170", "locID": "LOC000002445453", "tech": "FTTP", "upgrade": "NULL_NA"}}, {"type": "Feature", "geometry": {"type": "Point", "coordinates": [150.91339777, -33.9184975]}, "properties": {"name": "102 ELIZABETH DRIVE LIVERPOOL 2170", "locID": "LOC000066207862", "tech": "FTTP", "upgrade": "NULL_NA"}}, {"type": "Feature", "geometry": {"type": "Point", "coordinates": [150.90765495, -33.92374557]}, "properties": {"name": "102 FLOWERDALE ROAD LIVERPOOL 2170", "locID": "LOC000030861643", "tech": "FTTP", "upgrade": "NULL_NA"}}, {"type": "Feature", "geometry": {"type": "Point", "coordinates": [150.92264347, -33.92261208]}, "properties": {"name": "102 MOORE STREET LIVERPOOL 2170", "locID": "LOC000177659456", "tech": "FTTP", "upgrade": "NULL_NA"}}, {"type": "Feature", "geometry": {"type": "Point", "coordinates": [150.91417563, -33.93047825]}, "properties": {"name": "102A ATKINSON STREET LIVERPOOL 2170", "locID": "LOC000072600543", "tech": "FTTP", "upgrade": "NULL_NA"}}, {"type": "Feature", "geometry": {"type": "Point", "coordinates": [150.91443944, -33.9299887]}, "properties": {"name": "103 ATKINSON STREET LIVERPOOL 2170", "locID": "LOC000084178528", "tech": "FTTP", "upgrade": "NULL_NA"}}, {"type": "Feature", "geometry": {"type": "Point", "coordinates": [150.91923256, -33.92465517]}, "properties": {"name": "103 CASTLEREAGH STREET LIVERPOOL 2170", "locID": "LOC000101360103", "tech": "FTTP", "upgrade": "NULL_NA"}}, {"type": "Feature", "geometry": {"type": "Point", "coordinates": [150.90825331, -33.92408216]}, "properties": {"name": "103 FLOWERDALE ROAD LIVERPOOL 2170", "locID": "LOC000063988766", "tech": "FTTP", "upgrade": "NULL_NA"}}, {"type": "Feature", "geometry": {"type": "Point", "coordinates": [150.91119285, -33.91064986]}, "properties": {"name": "103 MEDLEY AVENUE LIVERPOOL 2170", "locID": "LOC000003215395", "tech": "FTTP", "upgrade": "NULL_NA"}}, {"type": "Feature", "geometry": {"type": "Point", "coordinates": [150.92186789, -33.9220444]}, "properties": {"name": "103 MOORE STREET LIVERPOOL 2170", "locID": "LOC000136010813", "tech": "FTTP", "upgrade": "NULL_NA"}}, {"type": "Feature", "geometry": {"type": "Point", "coordinates": [150.91862377, -33.91133641]}, "properties": {"name": "103 ORANGE GROVE ROAD LIVERPOOL 2170", "locID": "LOC000097900404", "tech": "FTTP", "upgrade": "NULL_NA"}}, {"type": "Feature", "geometry": {"type": "Point", "coordinates": [150.91466265, -33.91510632]}, "properties": {"name": "103 WOODLANDS ROAD LIVERPOOL 2170", "locID": "LOC000031396471", "tech": "FTTP", "upgrade": "NULL_NA"}}, {"type": "Feature", "geometry": {"type": "Point", "coordinates": [150.91401149, -33.930456]}, "properties": {"name": "104 ATKINSON STREET LIVERPOOL 2170", "locID": "LOC000030289960", "tech": "FTTP", "upgrade": "NULL_NA"}}, {"type": "Feature", "geometry": {"type": "Point", "coordinates": [150.91322045, -33.91838248]}, "properties": {"name": "104 ELIZABETH DRIVE LIVERPOOL 2170", "locID": "LOC000056026855", "tech": "FTTP", "upgrade": "NULL_NA"}}, {"type": "Feature", "geometry": {"type": "Point", "coordinates": [150.90768751, -33.92398851]}, "properties": {"name": "104 FLOWERDALE ROAD LIVERPOOL 2170", "locID": "LOC000029590347", "tech": "FTTP", "upgrade": "NULL_NA"}}, {"type": "Feature", "geometry": {"type": "Point", "coordinates": [150.92224662, -33.92258387]}, "properties": {"name": "104 MOORE STREET LIVERPOOL 2170", "locID": "LOC000176248666", "tech": "FTTP", "upgrade": "NULL_NA"}}, {"type": "Feature", "geometry": {"type": "Point", "coordinates": [150.91322045, -33.91838248]}, "properties": {"name": "104A ELIZABETH DRIVE LIVERPOOL 2170", "locID": "LOC000169850023", "tech": "FTTP", "upgrade": "NULL_NA"}}, {"type": "Feature", "geometry": {"type": "Point", "coordinates": [150.91427638, -33.92996664]}, "properties": {"name": "105 ATKINSON STREET LIVERPOOL 2170", "locID": "LOC000049325743", "tech": "FTTP", "upgrade": "NULL_NA"}}, {"type": "Feature", "geometry": {"type": "Point", "coordinates": [150.91920685, -33.92479129]}, "properties": {"name": "105 CASTLEREAGH STREET LIVERPOOL 2170", "locID": "LOC000100365347", "tech": "FTTP", "upgrade": "NULL_NA"}}, {"type": "Feature", "geometry": {"type": "Point", "coordinates": [150.90833036, -33.9242324]}, "properties": {"name": "105 FLOWERDALE ROAD LIVERPOOL 2170", "locID": "LOC000081539484", "tech": "FTTP", "upgrade": "NULL_NA"}}, {"type": "Feature", "geometry": {"type": "Point", "coordinates": [150.91108294, -33.91075296]}, "properties": {"name": "105 MEDLEY AVENUE LIVERPOOL 2170", "locID": "LOC000045388946", "tech": "FTTP", "upgrade": "NULL_NA"}}, {"type": "Feature", "geometry": {"type": "Point", "coordinates": [150.92171508, -33.92199682]}, "properties": {"name": "105 MOORE STREET LIVERPOOL 2170", "locID": "LOC000136010821", "tech": "FTTP", "upgrade": "NULL_NA"}}, {"type": "Feature", "geometry": {"type": "Point", "coordinates": [150.91863774, -33.9115003]}, "properties": {"name": "105 ORANGE GROVE ROAD LIVERPOOL 2170", "locID": "LOC000071069268", "tech": "FTTP", "upgrade": "NULL_NA"}}, {"type": "Feature", "geometry": {"type": "Point", "coordinates": [150.9145803, -33.91526425]}, "properties": {"name": "105 WOODLANDS ROAD LIVERPOOL 2170", "locID": "LOC000057332753", "tech": "FTTP", "upgrade": "NULL_NA"}}, {"type": "Feature", "geometry": {"type": "Point", "coordinates": [150.91384874, -33.93043401]}, "properties": {"name": "106 ATKINSON STREET LIVERPOOL 2170", "locID": "LOC000079814573", "tech": "FTTP", "upgrade": "NULL_NA"}}, {"type": "Feature", "geometry": {"type": "Point", "coordinates": [150.90765985, -33.92413325]}, "properties": {"name": "106 FLOWERDALE ROAD LIVERPOOL 2170", "locID": "LOC000092019519", "tech": "FTTP", "upgrade": "NULL_NA"}}, {"type": "Feature", "geometry": {"type": "Point", "coordinates": [150.92205247, -33.92255858]}, "properties": {"name": "106 MOORE STREET LIVERPOOL 2170", "locID": "LOC000135976372", "tech": "FTTP", "upgrade": "NULL_NA"}}, {"type": "Feature", "geometry": {"type": "Point", "coordinates": [150.92205247, -33.92255858]}, "properties": {"name": "106B MOORE STREET LIVERPOOL 2170", "locID": "LOC000060128965", "tech": "FTTP", "upgrade": "NULL_NA"}}, {"type": "Feature", "geometry": {"type": "Point", "coordinates": [150.91411305, -33.92994447]}, "properties": {"name": "107 ATKINSON STREET LIVERPOOL 2170", "locID": "LOC000101593994", "tech": "FTTP", "upgrade": "NULL_NA"}}, {"type": "Feature", "geometry": {"type": "Point", "coordinates": [150.91916873, -33.92499516]}, "properties": {"name": "107 CASTLEREAGH STREET LIVERPOOL 2170", "locID": "LOC000136121937", "tech": "FTTP", "upgrade": "NULL_NA"}}, {"type": "Feature", "geometry": {"type": "Point", "coordinates": [150.91770334, -33.93433653]}, "properties": {"name": "107 CONGRESSIONAL DRIVE LIVERPOOL 2170", "locID": "LOC000051481242", "tech": "FTTP", "upgrade": "NULL_NA"}}, {"type": "Feature", "geometry": {"type": "Point", "coordinates": [150.91560287, -33.91836433]}, "properties": {"name": "107 ELIZABETH DRIVE LIVERPOOL 2170", "locID": "LOC000183956640", "tech": "FTTP", "upgrade": "NULL_NA"}}, {"type": "Feature", "geometry": {"type": "Point", "coordinates": [150.90830468, -33.92437268]}, "properties": {"name": "107 FLOWERDALE ROAD LIVERPOOL 2170", "locID": "LOC000093962227", "tech": "FTTP", "upgrade": "NULL_NA"}}, {"type": "Feature", "geometry": {"type": "Point", "coordinates": [150.91097405, -33.91085657]}, "properties": {"name": "107 MEDLEY AVENUE LIVERPOOL 2170", "locID": "LOC000107425354", "tech": "FTTP", "upgrade": "NULL_NA"}}, {"type": "Feature", "geometry": {"type": "Point", "coordinates": [150.92158977, -33.92197867]}, "properties": {"name": "107 MOORE STREET LIVERPOOL 2170", "locID": "LOC100054132540", "tech": "FTTP", "upgrade": "NULL_NA"}}, {"type": "Feature", "geometry": {"type": "Point", "coordinates": [150.91859564, -33.91167035]}, "properties": {"name": "107 ORANGE GROVE ROAD LIVERPOOL 2170", "locID": "LOC000022197943", "tech": "FTTP", "upgrade": "NULL_NA"}}, {"type": "Feature", "geometry": {"type": "Point", "coordinates": [150.91433028, -33.9152298]}, "properties": {"name": "107-109 WOODLANDS ROAD LIVERPOOL 2170", "locID": "LOC000147356450", "tech": "FTTP", "upgrade": "NULL_NA"}}, {"type": "Feature", "geometry": {"type": "Point", "coordinates": [150.91368871, -33.93041372]}, "properties": {"name": "108 ATKINSON STREET LIVERPOOL 2170", "locID": "LOC000029157828", "tech": "FTTP", "upgrade": "NULL_NA"}}, {"type": "Feature", "geometry": {"type": "Point", "coordinates": [150.92775393, -33.91988991]}, "properties": {"name": "108 BIGGE STREET LIVERPOOL 2170", "locID": "LOC000078840832", "tech": "FTTP", "upgrade": "NULL_NA"}}, {"type": "Feature", "geometry": {"type": "Point", "coordinates": [150.90759887, -33.92427432]}, "properties": {"name": "108 FLOWERDALE ROAD LIVERPOOL 2170", "locID": "LOC000063242625", "tech": "FTTP", "upgrade": "NULL_NA"}}, {"type": "Feature", "geometry": {"type": "Point", "coordinates": [150.92185725, -33.92253303]}, "properties": {"name": "108 MOORE STREET LIVERPOOL 2170", "locID": "LOC000046754401", "tech": "FTTP", "upgrade": "NULL_NA"}}, {"type": "Feature", "geometry": {"type": "Point", "coordinates": [150.91395054, -33.92992247]}, "properties": {"name": "109 ATKINSON STREET LIVERPOOL 2170", "locID": "LOC000028957951", "tech": "FTTP", "upgrade": "NULL_NA"}}, {"type": "Feature", "geometry": {"type": "Point", "coordinates": [150.90827916, -33.92451122]}, "properties": {"name": "109 FLOWERDALE ROAD LIVERPOOL 2170", "locID": "LOC000008161392", "tech": "FTTP", "upgrade": "NULL_NA"}}, {"type": "Feature", "geometry": {"type": "Point", "coordinates": [150.91086762, -33.9109601]}, "properties": {"name": "109 MEDLEY AVENUE LIVERPOOL 2170", "locID": "LOC000100882960", "tech": "FTTP", "upgrade": "NULL_NA"}}, {"type": "Feature", "geometry": {"type": "Point", "coordinates": [150.92117574, -33.921907]}, "properties": {"name": "109 MOORE STREET LIVERPOOL 2170", "locID": "LOC000030571522", "tech": "FTTP", "upgrade": "NULL_NA"}}, {"type": "Feature", "geometry": {"type": "Point", "coordinates": [150.91863696, -33.91180047]}, "properties": {"name": "109 ORANGE GROVE ROAD LIVERPOOL 2170", "locID": "LOC000088563647", "tech": "FTTP", "upgrade": "NULL_NA"}}, {"type": "Feature", "geometry": {"type": "Point", "coordinates": [150.9126631, -33.91188261]}, "properties": {"name": "10A BOSLEY AVENUE LIVERPOOL 2170", "locID": "LOC000192392397", "tech": "FTTP", "upgrade": "NULL_NA"}}, {"type": "Feature", "geometry": {"type": "Point", "coordinates": [150.90680961, -33.92168285]}, "properties": {"name": "10A KENNEDY STREET LIVERPOOL 2170", "locID": "LOC000098674578", "tech": "FTTP", "upgrade": "NULL_NA"}}, {"type": "Feature", "geometry": {"type": "Point", "coordinates": [150.9078224, -33.92149832]}, "properties": {"name": "10A STANTON STREET LIVERPOOL 2170", "locID": "LOC000076459267", "tech": "FTTP", "upgrade": "NULL_NA"}}, {"type": "Feature", "geometry": {"type": "Point", "coordinates": [150.91623682, -33.91321469]}, "properties": {"name": "10A VIOLET AVENUE LIVERPOOL 2170", "locID": "LOC000031264612", "tech": "FTTP", "upgrade": "NULL_NA"}}, {"type": "Feature", "geometry": {"type": "Point", "coordinates": [150.90680961, -33.92168285]}, "properties": {"name": "10B KENNEDY STREET LIVERPOOL 2170", "locID": "LOC000098480583", "tech": "FTTP", "upgrade": "NULL_NA"}}, {"type": "Feature", "geometry": {"type": "Point", "coordinates": [150.90772293, -33.92142024]}, "properties": {"name": "10B STANTON STREET LIVERPOOL 2170", "locID": "LOC000076679997", "tech": "FTTP", "upgrade": "NULL_NA"}}, {"type": "Feature", "geometry": {"type": "Point", "coordinates": [150.90941025, -33.9143248]}, "properties": {"name": "11 ANASTASIO ROAD LIVERPOOL 2170", "locID": "LOC000029743064", "tech": "FTTP", "upgrade": "NULL_NA"}}, {"type": "Feature", "geometry": {"type": "Point", "coordinates": [150.91076382, -33.9238498]}, "properties": {"name": "11 ANEBO STREET LIVERPOOL 2170", "locID": "LOC000055667936", "tech": "FTTP", "upgrade": "NULL_NA"}}, {"type": "Feature", "geometry": {"type": "Point", "coordinates": [150.90469686, -33.93762525]}, "properties": {"name": "11 ANGELO AVENUE LIVERPOOL 2170", "locID": "LOC000018011313", "tech": "HFC", "upgrade": "NULL_NA"}}, {"type": "Feature", "geometry": {"type": "Point", "coordinates": [150.91865075, -33.93460333]}, "properties": {"name": "11 BIRKDALE CRESCENT LIVERPOOL 2170", "locID": "LOC000077608462", "tech": "FTTP", "upgrade": "NULL_NA"}}, {"type": "Feature", "geometry": {"type": "Point", "coordinates": [150.91261975, -33.91225755]}, "properties": {"name": "11 BOSLEY AVENUE LIVERPOOL 2170", "locID": "LOC000048538971", "tech": "FTTP", "upgrade": "NULL_NA"}}, {"type": "Feature", "geometry": {"type": "Point", "coordinates": [150.91278919, -33.93584132]}, "properties": {"name": "11 BOUNDARY ROAD LIVERPOOL 2170", "locID": "LOC000036077165", "tech": "HFC", "upgrade": "NULL_NA"}}, {"type": "Feature", "geometry": {"type": "Point", "coordinates": [150.90580131, -33.91986735]}, "properties": {"name": "11 BUNCE ROAD LIVERPOOL 2170", "locID": "LOC000019376268", "tech": "FTTP", "upgrade": "NULL_NA"}}, {"type": "Feature", "geometry": {"type": "Point", "coordinates": [150.91674893, -33.91978279]}, "properties": {"name": "11 CARBONI STREET LIVERPOOL 2170", "locID": "LOC000039671008", "tech": "FTTP", "upgrade": "NULL_NA"}}, {"type": "Feature", "geometry": {"type": "Point", "coordinates": [150.92088015, -33.91655403]}, "properties": {"name": "11 CASTLEREAGH STREET LIVERPOOL 2170", "locID": "LOC000005558305", "tech": "FTTP", "upgrade": "NULL_NA"}}, {"type": "Feature", "geometry": {"type": "Point", "coordinates": [150.91632695, -33.93564254]}, "properties": {"name": "11 CONGRESSIONAL DRIVE LIVERPOOL 2170", "locID": "LOC000108500228", "tech": "FTTP", "upgrade": "NULL_NA"}}, {"type": "Feature", "geometry": {"type": "Point", "coordinates": [150.91917053, -33.91805272]}, "properties": {"name": "11 COPELAND STREET LIVERPOOL 2170", "locID": "LOC000075672320", "tech": "FTTP", "upgrade": "NULL_NA"}}, {"type": "Feature", "geometry": {"type": "Point", "coordinates": [150.90934711, -33.93610841]}, "properties": {"name": "11 CULLENS AVENUE LIVERPOOL 2170", "locID": "LOC000018852568", "tech": "HFC", "upgrade": "NULL_NA"}}, {"type": "Feature", "geometry": {"type": "Point", "coordinates": [150.91792305, -33.93637218]}, "properties": {"name": "11 CYPRESS PLACE LIVERPOOL 2170", "locID": "LOC000101211818", "tech": "FTTP", "upgrade": "NULL_NA"}}, {"type": "Feature", "geometry": {"type": "Point", "coordinates": [150.90416837, -33.92581739]}, "properties": {"name": "11 DALE AVENUE LIVERPOOL 2170", "locID": "LOC000109211196", "tech": "FTTP", "upgrade": "NULL_NA"}}, {"type": "Feature", "geometry": {"type": "Point", "coordinates": [150.91195729, -33.93291261]}, "properties": {"name": "11 DANALAM STREET LIVERPOOL 2170", "locID": "LOC000002986355", "tech": "HFC", "upgrade": "NULL_NA"}}, {"type": "Feature", "geometry": {"type": "Point", "coordinates": [150.91764897, -33.93692888]}, "properties": {"name": "11 DEERWOOD AVENUE LIVERPOOL 2170", "locID": "LOC000039980773", "tech": "FTTP", "upgrade": "NULL_NA"}}, {"type": "Feature", "geometry": {"type": "Point", "coordinates": [150.91175732, -33.91411286]}, "properties": {"name": "11 EDITH AVENUE LIVERPOOL 2170", "locID": "LOC000037253540", "tech": "FTTP", "upgrade": "NULL_NA"}}, {"type": "Feature", "geometry": {"type": "Point", "coordinates": [150.92771655, -33.92042165]}, "properties": {"name": "11 ELIZABETH STREET LIVERPOOL 2170", "locID": "LOC000139491791", "tech": "FTTP", "upgrade": "NULL_NA"}}, {"type": "Feature", "geometry": {"type": "Point", "coordinates": [150.90631783, -33.92374048]}, "properties": {"name": "11 FERRINGTON CRESCENT LIVERPOOL 2170", "locID": "LOC000036692736", "tech": "FTTP", "upgrade": "NULL_NA"}}, {"type": "Feature", "geometry": {"type": "Point", "coordinates": [150.90974667, -33.91681065]}, "properties": {"name": "11 FLOWERDALE ROAD LIVERPOOL 2170", "locID": "LOC000078511606", "tech": "FTTP", "upgrade": "NULL_NA"}}, {"type": "Feature", "geometry": {"type": "Point", "coordinates": [150.9096554, -33.92708916]}, "properties": {"name": "11 FRANGIPANE AVENUE LIVERPOOL 2170", "locID": "LOC000070844355", "tech": "FTTP", "upgrade": "NULL_NA"}}, {"type": "Feature", "geometry": {"type": "Point", "coordinates": [150.92569465, -33.9166348]}, "properties": {"name": "11 GEORGE STREET LIVERPOOL 2170", "locID": "LOC000057422005", "tech": "FTTP", "upgrade": "NULL_NA"}}, {"type": "Feature", "geometry": {"type": "Point", "coordinates": [150.91187067, -33.92954042]}, "properties": {"name": "11 GILL AVENUE LIVERPOOL 2170", "locID": "LOC000084475081", "tech": "FTTP", "upgrade": "NULL_NA"}}, {"type": "Feature", "geometry": {"type": "Point", "coordinates": [150.90592685, -33.92147226]}, "properties": {"name": "11 GRACE STREET LIVERPOOL 2170", "locID": "LOC000061139991", "tech": "FTTP", "upgrade": "NULL_NA"}}, {"type": "Feature", "geometry": {"type": "Point", "coordinates": [150.91810796, -33.91438281]}, "properties": {"name": "11 GRIMSON CRESCENT LIVERPOOL 2170", "locID": "LOC000092388961", "tech": "FTTP", "upgrade": "NULL_NA"}}, {"type": "Feature", "geometry": {"type": "Point", "coordinates": [150.91391715, -33.91212855]}, "properties": {"name": "11 HINDMARSH ROAD LIVERPOOL 2170", "locID": "LOC000060122401", "tech": "FTTP", "upgrade": "NULL_NA"}}, {"type": "Feature", "geometry": {"type": "Point", "coordinates": [150.90604972, -33.93441946]}, "properties": {"name": "11 IVES AVENUE LIVERPOOL 2170", "locID": "LOC000015501797", "tech": "HFC", "upgrade": "NULL_NA"}}, {"type": "Feature", "geometry": {"type": "Point", "coordinates": [150.90627608, -33.92156073]}, "properties": {"name": "11 KENNEDY STREET LIVERPOOL 2170", "locID": "LOC000086268482", "tech": "FTTP", "upgrade": "NULL_NA"}}, {"type": "Feature", "geometry": {"type": "Point", "coordinates": [150.91026893, -33.92475091]}, "properties": {"name": "11 KEYS PLACE LIVERPOOL 2170", "locID": "LOC000101795347", "tech": "FTTP", "upgrade": "NULL_NA"}}, {"type": "Feature", "geometry": {"type": "Point", "coordinates": [150.9079072, -33.9174331]}, "properties": {"name": "11 KILLINGER AVENUE LIVERPOOL 2170", "locID": "LOC000024773609", "tech": "FTTP", "upgrade": "NULL_NA"}}, {"type": "Feature", "geometry": {"type": "Point", "coordinates": [150.91803846, -33.93838242]}, "properties": {"name": "11 LAKEWOOD CRESCENT LIVERPOOL 2170", "locID": "LOC000136121045", "tech": "FTTP", "upgrade": "NULL_NA"}}, {"type": "Feature", "geometry": {"type": "Point", "coordinates": [150.9087692, -33.91637744]}, "properties": {"name": "11 LEHMANN AVENUE LIVERPOOL 2170", "locID": "LOC000092255503", "tech": "FTTP", "upgrade": "NULL_NA"}}, {"type": "Feature", "geometry": {"type": "Point", "coordinates": [150.9148082, -33.91587335]}, "properties": {"name": "11 LEWIS ROAD LIVERPOOL 2170", "locID": "LOC000078677697", "tech": "FTTP", "upgrade": "NULL_NA"}}, {"type": "Feature", "geometry": {"type": "Point", "coordinates": [150.90989218, -33.91433696]}, "properties": {"name": "11 LIGATO PLACE LIVERPOOL 2170", "locID": "LOC000032093354", "tech": "FTTP", "upgrade": "NULL_NA"}}, {"type": "Feature", "geometry": {"type": "Point", "coordinates": [150.90672339, -33.9245729]}, "properties": {"name": "11 MAINSBRIDGE AVENUE LIVERPOOL 2170", "locID": "LOC000098366922", "tech": "FTTP", "upgrade": "NULL_NA"}}, {"type": "Feature", "geometry": {"type": "Point", "coordinates": [150.91056204, -33.92574283]}, "properties": {"name": "11 MARKELL PLACE LIVERPOOL 2170", "locID": "LOC000012214553", "tech": "FTTP", "upgrade": "NULL_NA"}}, {"type": "Feature", "geometry": {"type": "Point", "coordinates": [150.91178444, -33.91312049]}, "properties": {"name": "11 MARSDEN ROAD LIVERPOOL 2170", "locID": "LOC000005037503", "tech": "FTTP", "upgrade": "NULL_NA"}}, {"type": "Feature", "geometry": {"type": "Point", "coordinates": [150.90539472, -33.93615875]}, "properties": {"name": "11 MARY CRESCENT LIVERPOOL 2170", "locID": "LOC000187088481", "tech": "HFC", "upgrade": "NULL_NA"}}, {"type": "Feature", "geometry": {"type": "Point", "coordinates": [150.90395894, -33.92356105]}, "properties": {"name": "11 MARYVALE AVENUE LIVERPOOL 2170", "locID": "LOC000051491268", "tech": "FTTP", "upgrade": "NULL_NA"}}, {"type": "Feature", "geometry": {"type": "Point", "coordinates": [150.91433786, -33.91901029]}, "properties": {"name": "11 MAYBERRY CRESCENT LIVERPOOL 2170", "locID": "LOC000098506090", "tech": "FTTP", "upgrade": "NULL_NA"}}, {"type": "Feature", "geometry": {"type": "Point", "coordinates": [150.92039474, -33.93255623]}, "properties": {"name": "11 MCGOWEN CRESCENT LIVERPOOL 2170", "locID": "LOC000003822854", "tech": "FTTP", "upgrade": "NULL_NA"}}, {"type": "Feature", "geometry": {"type": "Point", "coordinates": [150.91159017, -33.91793802]}, "properties": {"name": "11 MCLEAN STREET LIVERPOOL 2170", "locID": "LOC000008856079", "tech": "FTTP", "upgrade": "NULL_NA"}}, {"type": "Feature", "geometry": {"type": "Point", "coordinates": [150.91301622, -33.91215396]}, "properties": {"name": "11 MCMAHON AVENUE LIVERPOOL 2170", "locID": "LOC000090762906", "tech": "FTTP", "upgrade": "NULL_NA"}}, {"type": "Feature", "geometry": {"type": "Point", "coordinates": [150.91801268, -33.90937513]}, "properties": {"name": "11 MEDLEY AVENUE LIVERPOOL 2170", "locID": "LOC000072420843", "tech": "FTTP", "upgrade": "NULL_NA"}}, {"type": "Feature", "geometry": {"type": "Point", "coordinates": [150.92141514, -33.92925823]}, "properties": {"name": "11 MILL ROAD LIVERPOOL 2170", "locID": "LOC000136115578", "tech": "FTTP", "upgrade": "NULL_NA"}}, {"type": "Feature", "geometry": {"type": "Point", "coordinates": [150.92843283, -33.92221649]}, "properties": {"name": "11 MOORE STREET LIVERPOOL 2170", "locID": "LOC000042583000", "tech": "FTTP", "upgrade": "NULL_NA"}}, {"type": "Feature", "geometry": {"type": "Point", "coordinates": [150.91123323, -33.92463633]}, "properties": {"name": "11 MURPHY AVENUE LIVERPOOL 2170", "locID": "LOC000068252283", "tech": "FTTP", "upgrade": "NULL_NA"}}, {"type": "Feature", "geometry": {"type": "Point", "coordinates": [150.91727709, -33.91029726]}, "properties": {"name": "11 O'BRIEN PARADE LIVERPOOL 2170", "locID": "LOC000018885908", "tech": "FTTP", "upgrade": "NULL_NA"}}, {"type": "Feature", "geometry": {"type": "Point", "coordinates": [150.9171426, -33.93610774]}, "properties": {"name": "11 OAKBORNE ROAD LIVERPOOL 2170", "locID": "LOC000078469428", "tech": "FTTP", "upgrade": "NULL_NA"}}, {"type": "Feature", "geometry": {"type": "Point", "coordinates": [150.91016514, -33.93197994]}, "properties": {"name": "11 PANETTA AVENUE LIVERPOOL 2170", "locID": "LOC000069417733", "tech": "HFC", "upgrade": "NULL_NA"}}, {"type": "Feature", "geometry": {"type": "Point", "coordinates": [150.91589087, -33.93110118]}, "properties": {"name": "11 PASSEFIELD STREET LIVERPOOL 2170", "locID": "LOC000059090505", "tech": "FTTP", "upgrade": "NULL_NA"}}, {"type": "Feature", "geometry": {"type": "Point", "coordinates": [150.91519027, -33.92920362]}, "properties": {"name": "11 PEARCE STREET LIVERPOOL 2170", "locID": "LOC000064402015", "tech": "FTTP", "upgrade": "NULL_NA"}}, {"type": "Feature", "geometry": {"type": "Point", "coordinates": [150.90814867, -33.91915729]}, "properties": {"name": "11 PHILLIP STREET LIVERPOOL 2170", "locID": "LOC000028045758", "tech": "FTTP", "upgrade": "NULL_NA"}}, {"type": "Feature", "geometry": {"type": "Point", "coordinates": [150.90831975, -33.93284416]}, "properties": {"name": "11 RAINE AVENUE LIVERPOOL 2170", "locID": "LOC000036448158", "tech": "HFC", "upgrade": "NULL_NA"}}, {"type": "Feature", "geometry": {"type": "Point", "coordinates": [150.90370362, -33.92479417]}, "properties": {"name": "11 ROLAND AVENUE LIVERPOOL 2170", "locID": "LOC000015482936", "tech": "FTTP", "upgrade": "NULL_NA"}}, {"type": "Feature", "geometry": {"type": "Point", "coordinates": [150.91570529, -33.93198411]}, "properties": {"name": "11 ROSE STREET LIVERPOOL 2170", "locID": "LOC000109655645", "tech": "FTTP", "upgrade": "NULL_NA"}}, {"type": "Feature", "geometry": {"type": "Point", "coordinates": [150.91023598, -33.916876]}, "properties": {"name": "11 ROSLYN STREET LIVERPOOL 2170", "locID": "LOC000019750518", "tech": "FTTP", "upgrade": "NULL_NA"}}, {"type": "Feature", "geometry": {"type": "Point", "coordinates": [150.91772973, -33.91103793]}, "properties": {"name": "11 ROTARY STREET LIVERPOOL 2170", "locID": "LOC000045421420", "tech": "FTTP", "upgrade": "NULL_NA"}}, {"type": "Feature", "geometry": {"type": "Point", "coordinates": [150.91802103, -33.91585639]}, "properties": {"name": "11 SAUNDERS AVENUE LIVERPOOL 2170", "locID": "LOC000089536492", "tech": "FTTP", "upgrade": "NULL_NA"}}, {"type": "Feature", "geometry": {"type": "Point", "coordinates": [150.92595626, -33.92494736]}, "properties": {"name": "11 SCOTT STREET LIVERPOOL 2170", "locID": "LOC000040763286", "tech": "FTTP", "upgrade": "NULL_NA"}}, {"type": "Feature", "geometry": {"type": "Point", "coordinates": [150.9094619, -33.92488265]}, "properties": {"name": "11 SMITH CRESCENT LIVERPOOL 2170", "locID": "LOC000070799009", "tech": "FTTP", "upgrade": "NULL_NA"}}, {"type": "Feature", "geometry": {"type": "Point", "coordinates": [150.90341347, -33.92394401]}, "properties": {"name": "11 ST PAULS CRESCENT LIVERPOOL 2170", "locID": "LOC000014624478", "tech": "FTTP", "upgrade": "NULL_NA"}}, {"type": "Feature", "geometry": {"type": "Point", "coordinates": [150.9073664, -33.92080601]}, "properties": {"name": "11 STANTON STREET LIVERPOOL 2170", "locID": "LOC000033903103", "tech": "FTTP", "upgrade": "NULL_NA"}}, {"type": "Feature", "geometry": {"type": "Point", "coordinates": [150.90856908, -33.92379629]}, "properties": {"name": "11 TOBRUK AVENUE LIVERPOOL 2170", "locID": "LOC000097846950", "tech": "FTTP", "upgrade": "NULL_NA"}}, {"type": "Feature", "geometry": {"type": "Point", "coordinates": [150.90695535, -33.93597314]}, "properties": {"name": "11 TULLY AVENUE LIVERPOOL 2170", "locID": "LOC000057271116", "tech": "HFC", "upgrade": "NULL_NA"}}, {"type": "Feature", "geometry": {"type": "Point", "coordinates": [150.91685105, -33.91127188]}, "properties": {"name": "11 VINCENT AVENUE LIVERPOOL 2170", "locID": "LOC000004238355", "tech": "FTTP", "upgrade": "NULL_NA"}}, {"type": "Feature", "geometry": {"type": "Point", "coordinates": [150.91657856, -33.90960314]}, "properties": {"name": "11 WILDMAN AVENUE LIVERPOOL 2170", "locID": "LOC000075187481", "tech": "FTTP", "upgrade": "NULL_NA"}}, {"type": "Feature", "geometry": {"type": "Point", "coordinates": [150.9109921, -33.91427727]}, "properties": {"name": "11 WOODLANDS ROAD LIVERPOOL 2170", "locID": "LOC000045524933", "tech": "FTTP", "upgrade": "NULL_NA"}}, {"type": "Feature", "geometry": {"type": "Point", "coordinates": [150.91961157, -33.92831743]}, "properties": {"name": "11-13 CHARLES STREET LIVERPOOL 2170", "locID": "LOC000136124659", "tech": "FTTP", "upgrade": "NULL_NA"}}, {"type": "Feature", "geometry": {"type": "Point", "coordinates": [150.91519027, -33.92920362]}, "properties": {"name": "11-13 PEARCE STREET LIVERPOOL 2170", "locID": "LOC000136219652", "tech": "FTTP", "upgrade": "NULL_NA"}}, {"type": "Feature", "geometry": {"type": "Point", "coordinates": [150.91352513, -33.93038942]}, "properties": {"name": "110 ATKINSON STREET LIVERPOOL 2170", "locID": "LOC000037251589", "tech": "FTTP", "upgrade": "NULL_NA"}}, {"type": "Feature", "geometry": {"type": "Point", "coordinates": [150.91221683, -33.91775053]}, "properties": {"name": "110 ELIZABETH DRIVE LIVERPOOL 2170", "locID": "LOC000183956672", "tech": "FTTP", "upgrade": "NULL_NA"}}, {"type": "Feature", "geometry": {"type": "Point", "coordinates": [150.90757304, -33.92441368]}, "properties": {"name": "110 FLOWERDALE ROAD LIVERPOOL 2170", "locID": "LOC000062853904", "tech": "FTTP", "upgrade": "NULL_NA"}}, {"type": "Feature", "geometry": {"type": "Point", "coordinates": [150.91267982, -33.92500723]}, "properties": {"name": "110 MEMORIAL AVENUE LIVERPOOL 2170", "locID": "LOC000120376107", "tech": "FTTP", "upgrade": "NULL_NA"}}, {"type": "Feature", "geometry": {"type": "Point", "coordinates": [150.92166342, -33.92250761]}, "properties": {"name": "110 MOORE STREET LIVERPOOL 2170", "locID": "LOC000146871339", "tech": "FTTP", "upgrade": "NULL_NA"}}, {"type": "Feature", "geometry": {"type": "Point", "coordinates": [150.91379003, -33.92990081]}, "properties": {"name": "111 ATKINSON STREET LIVERPOOL 2170", "locID": "LOC000049413548", "tech": "FTTP", "upgrade": "NULL_NA"}}, {"type": "Feature", "geometry": {"type": "Point", "coordinates": [150.91911773, -33.92526652]}, "properties": {"name": "111 CASTLEREAGH STREET LIVERPOOL 2170", "locID": "LOC000136122189", "tech": "FTTP", "upgrade": "NULL_NA"}}, {"type": "Feature", "geometry": {"type": "Point", "coordinates": [150.91526132, -33.91804462]}, "properties": {"name": "111 ELIZABETH DRIVE LIVERPOOL 2170", "locID": "LOC000064032060", "tech": "FTTP", "upgrade": "NULL_NA"}}, {"type": "Feature", "geometry": {"type": "Point", "coordinates": [150.90825374, -33.9246562]}, "properties": {"name": "111 FLOWERDALE ROAD LIVERPOOL 2170", "locID": "LOC000080091785", "tech": "FTTP", "upgrade": "NULL_NA"}}, {"type": "Feature", "geometry": {"type": "Point", "coordinates": [150.91075905, -33.91106322]}, "properties": {"name": "111 MEDLEY AVENUE LIVERPOOL 2170", "locID": "LOC000097528093", "tech": "FTTP", "upgrade": "NULL_NA"}}, {"type": "Feature", "geometry": {"type": "Point", "coordinates": [150.92101401, -33.92188496]}, "properties": {"name": "111 MOORE STREET LIVERPOOL 2170", "locID": "LOC000100057702", "tech": "FTTP", "upgrade": "NULL_NA"}}, {"type": "Feature", "geometry": {"type": "Point", "coordinates": [150.91868216, -33.91193031]}, "properties": {"name": "111 ORANGE GROVE ROAD LIVERPOOL 2170", "locID": "LOC000087430267", "tech": "FTTP", "upgrade": "NULL_NA"}}, {"type": "Feature", "geometry": {"type": "Point", "coordinates": [150.91400767, -33.91540087]}, "properties": {"name": "111 WOODLANDS ROAD LIVERPOOL 2170", "locID": "LOC000120376176", "tech": "FTTP", "upgrade": "NULL_NA"}}, {"type": "Feature", "geometry": {"type": "Point", "coordinates": [150.91400767, -33.91540087]}, "properties": {"name": "111A WOODLANDS ROAD LIVERPOOL 2170", "locID": "LOC000029561696", "tech": "FTTP", "upgrade": "NULL_NA"}}, {"type": "Feature", "geometry": {"type": "Point", "coordinates": [150.91400767, -33.91540087]}, "properties": {"name": "111B WOODLANDS ROAD LIVERPOOL 2170", "locID": "LOC000029742956", "tech": "FTTP", "upgrade": "NULL_NA"}}, {"type": "Feature", "geometry": {"type": "Point", "coordinates": [150.91336235, -33.93036767]}, "properties": {"name": "112 ATKINSON STREET LIVERPOOL 2170", "locID": "LOC000086616509", "tech": "FTTP", "upgrade": "NULL_NA"}}, {"type": "Feature", "geometry": {"type": "Point", "coordinates": [150.90763896, -33.92460185]}, "properties": {"name": "112 FLOWERDALE ROAD LIVERPOOL 2170", "locID": "LOC000096871432", "tech": "FTTP", "upgrade": "NULL_NA"}}, {"type": "Feature", "geometry": {"type": "Point", "coordinates": [150.92150005, -33.92251009]}, "properties": {"name": "112 MOORE STREET LIVERPOOL 2170", "locID": "LOC000053955858", "tech": "FTTP", "upgrade": "NULL_NA"}}, {"type": "Feature", "geometry": {"type": "Point", "coordinates": [150.91362444, -33.92987833]}, "properties": {"name": "113 ATKINSON STREET LIVERPOOL 2170", "locID": "LOC000074765038", "tech": "FTTP", "upgrade": "NULL_NA"}}, {"type": "Feature", "geometry": {"type": "Point", "coordinates": [150.91505154, -33.91801412]}, "properties": {"name": "113 ELIZABETH DRIVE LIVERPOOL 2170", "locID": "LOC000062646266", "tech": "FTTP", "upgrade": "NULL_NA"}}, {"type": "Feature", "geometry": {"type": "Point", "coordinates": [150.90812178, -33.9248455]}, "properties": {"name": "113 FLOWERDALE ROAD LIVERPOOL 2170", "locID": "LOC000018035826", "tech": "FTTP", "upgrade": "NULL_NA"}}, {"type": "Feature", "geometry": {"type": "Point", "coordinates": [150.91064921, -33.91116686]}, "properties": {"name": "113 MEDLEY AVENUE LIVERPOOL 2170", "locID": "LOC000009581654", "tech": "FTTP", "upgrade": "NULL_NA"}}, {"type": "Feature", "geometry": {"type": "Point", "coordinates": [150.92085176, -33.92186287]}, "properties": {"name": "113 MOORE STREET LIVERPOOL 2170", "locID": "LOC000107214343", "tech": "FTTP", "upgrade": "NULL_NA"}}, {"type": "Feature", "geometry": {"type": "Point", "coordinates": [150.91872792, -33.91206118]}, "properties": {"name": "113 ORANGE GROVE ROAD LIVERPOOL 2170", "locID": "LOC000069434337", "tech": "FTTP", "upgrade": "NULL_NA"}}, {"type": "Feature", "geometry": {"type": "Point", "coordinates": [150.91319978, -33.93034639]}, "properties": {"name": "114 ATKINSON STREET LIVERPOOL 2170", "locID": "LOC000041976415", "tech": "FTTP", "upgrade": "NULL_NA"}}, {"type": "Feature", "geometry": {"type": "Point", "coordinates": [150.92773627, -33.92001999]}, "properties": {"name": "114 BIGGE STREET LIVERPOOL 2170", "locID": "LOC100034339554", "tech": "FTTP", "upgrade": "NULL_NA"}}, {"type": "Feature", "geometry": {"type": "Point", "coordinates": [150.91190536, -33.91763399]}, "properties": {"name": "114 ELIZABETH DRIVE LIVERPOOL 2170", "locID": "LOC100023500824", "tech": "FTTP", "upgrade": "NULL_NA"}}, {"type": "Feature", "geometry": {"type": "Point", "coordinates": [150.90849394, -33.92147958]}, "properties": {"name": "114 FLOWERDALE ROAD LIVERPOOL 2170", "locID": "LOC000136190494", "tech": "FTTP", "upgrade": "NULL_NA"}}, {"type": "Feature", "geometry": {"type": "Point", "coordinates": [150.92107059, -33.92245607]}, "properties": {"name": "114 MOORE STREET LIVERPOOL 2170", "locID": "LOC000061357529", "tech": "FTTP", "upgrade": "NULL_NA"}}, {"type": "Feature", "geometry": {"type": "Point", "coordinates": [150.91346072, -33.92985621]}, "properties": {"name": "115 ATKINSON STREET LIVERPOOL 2170", "locID": "LOC000042763401", "tech": "FTTP", "upgrade": "NULL_NA"}}, {"type": "Feature", "geometry": {"type": "Point", "coordinates": [150.91908032, -33.92546718]}, "properties": {"name": "115 CASTLEREAGH STREET LIVERPOOL 2170", "locID": "LOC000096083741", "tech": "FTTP", "upgrade": "NULL_NA"}}, {"type": "Feature", "geometry": {"type": "Point", "coordinates": [150.91489573, -33.91792136]}, "properties": {"name": "115 ELIZABETH DRIVE LIVERPOOL 2170", "locID": "LOC000045275297", "tech": "FTTP", "upgrade": "NULL_NA"}}, {"type": "Feature", "geometry": {"type": "Point", "coordinates": [150.90806509, -33.92523843]}, "properties": {"name": "115 FLOWERDALE ROAD LIVERPOOL 2170", "locID": "LOC000016827059", "tech": "FTTP", "upgrade": "NULL_NA"}}, {"type": "Feature", "geometry": {"type": "Point", "coordinates": [150.91054026, -33.91127024]}, "properties": {"name": "115 MEDLEY AVENUE LIVERPOOL 2170", "locID": "LOC000007413741", "tech": "FTTP", "upgrade": "NULL_NA"}}, {"type": "Feature", "geometry": {"type": "Point", "coordinates": [150.92068815, -33.92184063]}, "properties": {"name": "115 MOORE STREET LIVERPOOL 2170", "locID": "LOC000082879134", "tech": "FTTP", "upgrade": "NULL_NA"}}, {"type": "Feature", "geometry": {"type": "Point", "coordinates": [150.91876715, -33.91219301]}, "properties": {"name": "115 ORANGE GROVE ROAD LIVERPOOL 2170", "locID": "LOC000076688225", "tech": "FTTP", "upgrade": "NULL_NA"}}, {"type": "Feature", "geometry": {"type": "Point", "coordinates": [150.91303582, -33.93032421]}, "properties": {"name": "116 ATKINSON STREET LIVERPOOL 2170", "locID": "LOC000078154835", "tech": "FTTP", "upgrade": "NULL_NA"}}, {"type": "Feature", "geometry": {"type": "Point", "coordinates": [150.9117489, -33.91752406]}, "properties": {"name": "116 ELIZABETH DRIVE LIVERPOOL 2170", "locID": "LOC000030015397", "tech": "FTTP", "upgrade": "NULL_NA"}}, {"type": "Feature", "geometry": {"type": "Point", "coordinates": [150.90755227, -33.92523868]}, "properties": {"name": "116 FLOWERDALE ROAD LIVERPOOL 2170", "locID": "LOC000107376332", "tech": "FTTP", "upgrade": "NULL_NA"}}, {"type": "Feature", "geometry": {"type": "Point", "coordinates": [150.9132995, -33.92983442]}, "properties": {"name": "117 ATKINSON STREET LIVERPOOL 2170", "locID": "LOC000102874805", "tech": "FTTP", "upgrade": "NULL_NA"}}, {"type": "Feature", "geometry": {"type": "Point", "coordinates": [150.91901941, -33.92578981]}, "properties": {"name": "117 CASTLEREAGH STREET LIVERPOOL 2170", "locID": "LOC000136122400", "tech": "FTTP", "upgrade": "NULL_NA"}}, {"type": "Feature", "geometry": {"type": "Point", "coordinates": [150.91473051, -33.91791524]}, "properties": {"name": "117 ELIZABETH DRIVE LIVERPOOL 2170", "locID": "LOC000043685112", "tech": "FTTP", "upgrade": "NULL_NA"}}, {"type": "Feature", "geometry": {"type": "Point", "coordinates": [150.9081831, -33.92549208]}, "properties": {"name": "117 FLOWERDALE ROAD LIVERPOOL 2170", "locID": "LOC000093437278", "tech": "FTTP", "upgrade": "NULL_NA"}}, {"type": "Feature", "geometry": {"type": "Point", "coordinates": [150.91043162, -33.91137344]}, "properties": {"name": "117 MEDLEY AVENUE LIVERPOOL 2170", "locID": "LOC000018400780", "tech": "FTTP", "upgrade": "NULL_NA"}}, {"type": "Feature", "geometry": {"type": "Point", "coordinates": [150.9204431, -33.92180728]}, "properties": {"name": "117 MOORE STREET LIVERPOOL 2170", "locID": "LOC000053679165", "tech": "FTTP", "upgrade": "NULL_NA"}}, {"type": "Feature", "geometry": {"type": "Point", "coordinates": [150.91881029, -33.91232375]}, "properties": {"name": "117 ORANGE GROVE ROAD LIVERPOOL 2170", "locID": "LOC000024733601", "tech": "FTTP", "upgrade": "NULL_NA"}}, {"type": "Feature", "geometry": {"type": "Point", "coordinates": [150.91283984, -33.93029783]}, "properties": {"name": "118 ATKINSON STREET LIVERPOOL 2170", "locID": "LOC000067541970", "tech": "FTTP", "upgrade": "NULL_NA"}}, {"type": "Feature", "geometry": {"type": "Point", "coordinates": [150.91159067, -33.91740977]}, "properties": {"name": "118 ELIZABETH DRIVE LIVERPOOL 2170", "locID": "LOC000077186998", "tech": "FTTP", "upgrade": "NULL_NA"}}, {"type": "Feature", "geometry": {"type": "Point", "coordinates": [150.90661771, -33.9255434]}, "properties": {"name": "118 FLOWERDALE ROAD LIVERPOOL 2170", "locID": "LOC000136190571", "tech": "FTTP", "upgrade": "NULL_NA"}}, {"type": "Feature", "geometry": {"type": "Point", "coordinates": [150.92082398, -33.92242457]}, "properties": {"name": "118 MOORE STREET LIVERPOOL 2170", "locID": "LOC000026270495", "tech": "FTTP", "upgrade": "NULL_NA"}}, {"type": "Feature", "geometry": {"type": "Point", "coordinates": [150.91313557, -33.92981223]}, "properties": {"name": "119 ATKINSON STREET LIVERPOOL 2170", "locID": "LOC000067457023", "tech": "FTTP", "upgrade": "NULL_NA"}}, {"type": "Feature", "geometry": {"type": "Point", "coordinates": [150.90830072, -33.92574101]}, "properties": {"name": "119 FLOWERDALE ROAD LIVERPOOL 2170", "locID": "LOC000189312206", "tech": "FTTP", "upgrade": "NULL_NA"}}, {"type": "Feature", "geometry": {"type": "Point", "coordinates": [150.91032418, -33.91147737]}, "properties": {"name": "119 MEDLEY AVENUE LIVERPOOL 2170", "locID": "LOC000076485345", "tech": "FTTP", "upgrade": "NULL_NA"}}, {"type": "Feature", "geometry": {"type": "Point", "coordinates": [150.9188542, -33.91245427]}, "properties": {"name": "119 ORANGE GROVE ROAD LIVERPOOL 2170", "locID": "LOC000034642890", "tech": "FTTP", "upgrade": "NULL_NA"}}, {"type": "Feature", "geometry": {"type": "Point", "coordinates": [150.91448638, -33.91790623]}, "properties": {"name": "119-121 ELIZABETH DRIVE LIVERPOOL 2170", "locID": "LOC000113750337", "tech": "FTTP", "upgrade": "NULL_NA"}}, {"type": "Feature", "geometry": {"type": "Point", "coordinates": [150.91448638, -33.91790623]}, "properties": {"name": "119A ELIZABETH DRIVE LIVERPOOL 2170", "locID": "LOC000111206366", "tech": "FTTP", "upgrade": "NULL_NA"}}, {"type": "Feature", "geometry": {"type": "Point", "coordinates": [150.91448638, -33.91790623]}, "properties": {"name": "119B ELIZABETH DRIVE LIVERPOOL 2170", "locID": "LOC000110357567", "tech": "FTTP", "upgrade": "NULL_NA"}}, {"type": "Feature", "geometry": {"type": "Point", "coordinates": [150.91917053, -33.91805272]}, "properties": {"name": "11A COPELAND STREET LIVERPOOL 2170", "locID": "LOC000075720544", "tech": "FTTP", "upgrade": "NULL_NA"}}, {"type": "Feature", "geometry": {"type": "Point", "coordinates": [150.91195729, -33.93291261]}, "properties": {"name": "11A DANALAM STREET LIVERPOOL 2170", "locID": "LOC000003085312", "tech": "HFC", "upgrade": "NULL_NA"}}, {"type": "Feature", "geometry": {"type": "Point", "coordinates": [150.91429854, -33.93409309]}, "properties": {"name": "11A REILLY STREET LIVERPOOL 2170", "locID": "LOC000066251502", "tech": "HFC", "upgrade": "NULL_NA"}}, {"type": "Feature", "geometry": {"type": "Point", "coordinates": [150.91185992, -33.93289968]}, "properties": {"name": "11B DANALAM STREET LIVERPOOL 2170", "locID": "LOC000002986355", "tech": "HFC", "upgrade": "NULL_NA"}}, {"type": "Feature", "geometry": {"type": "Point", "coordinates": [150.91427083, -33.93421266]}, "properties": {"name": "11B REILLY STREET LIVERPOOL 2170", "locID": "LOC000066800933", "tech": "HFC", "upgrade": "NULL_NA"}}, {"type": "Feature", "geometry": {"type": "Point", "coordinates": [150.91159017, -33.91793802]}, "properties": {"name": "11C MCLEAN STREET LIVERPOOL 2170", "locID": "LOC000097667455", "tech": "FTTP", "upgrade": "NULL_NA"}}, {"type": "Feature", "geometry": {"type": "Point", "coordinates": [150.90906374, -33.91458449]}, "properties": {"name": "12 ANASTASIO ROAD LIVERPOOL 2170", "locID": "LOC000043142615", "tech": "FTTP", "upgrade": "NULL_NA"}}, {"type": "Feature", "geometry": {"type": "Point", "coordinates": [150.91177158, -33.92259917]}, "properties": {"name": "12 ANDERSON AVENUE LIVERPOOL 2170", "locID": "LOC000056039533", "tech": "FTTP", "upgrade": "NULL_NA"}}, {"type": "Feature", "geometry": {"type": "Point", "coordinates": [150.91042513, -33.92434601]}, "properties": {"name": "12 ANEBO STREET LIVERPOOL 2170", "locID": "LOC000063140192", "tech": "FTTP", "upgrade": "NULL_NA"}}, {"type": "Feature", "geometry": {"type": "Point", "coordinates": [150.90484378, -33.93778848]}, "properties": {"name": "12 ANGELO AVENUE LIVERPOOL 2170", "locID": "LOC000046992244", "tech": "HFC", "upgrade": "NULL_NA"}}, {"type": "Feature", "geometry": {"type": "Point", "coordinates": [150.91920008, -33.93468211]}, "properties": {"name": "12 BIRKDALE CRESCENT LIVERPOOL 2170", "locID": "LOC000064388266", "tech": "FTTP", "upgrade": "NULL_NA"}}, {"type": "Feature", "geometry": {"type": "Point", "coordinates": [150.91264054, -33.93650847]}, "properties": {"name": "12 BOUNDARY ROAD LIVERPOOL 2170", "locID": "LOC000173278970", "tech": "HFC", "upgrade": "NULL_NA"}}, {"type": "Feature", "geometry": {"type": "Point", "coordinates": [150.91608236, -33.91960889]}, "properties": {"name": "12 CARBONI STREET LIVERPOOL 2170", "locID": "LOC000092207428", "tech": "FTTP", "upgrade": "NULL_NA"}}, {"type": "Feature", "geometry": {"type": "Point", "coordinates": [150.92091375, -33.92774671]}, "properties": {"name": "12 CHARLES STREET LIVERPOOL 2170", "locID": "LOC000136126473", "tech": "FTTP", "upgrade": "NULL_NA"}}, {"type": "Feature", "geometry": {"type": "Point", "coordinates": [150.91849041, -33.92029758]}, "properties": {"name": "12 COLLIMORE AVENUE LIVERPOOL 2170", "locID": "LOC000054342226", "tech": "FTTP", "upgrade": "NULL_NA"}}, {"type": "Feature", "geometry": {"type": "Point", "coordinates": [150.91679725, -33.93594494]}, "properties": {"name": "12 CONGRESSIONAL DRIVE LIVERPOOL 2170", "locID": "LOC000005083728", "tech": "FTTP", "upgrade": "NULL_NA"}}, {"type": "Feature", "geometry": {"type": "Point", "coordinates": [150.92051951, -33.91636744]}, "properties": {"name": "12 COPELAND STREET LIVERPOOL 2170", "locID": "LOC000028230327", "tech": "FTTP", "upgrade": "NULL_NA"}}, {"type": "Feature", "geometry": {"type": "Point", "coordinates": [150.91795263, -33.93616168]}, "properties": {"name": "12 CYPRESS PLACE LIVERPOOL 2170", "locID": "LOC000110081082", "tech": "FTTP", "upgrade": "NULL_NA"}}, {"type": "Feature", "geometry": {"type": "Point", "coordinates": [150.90446233, -33.92640919]}, "properties": {"name": "12 DALE AVENUE LIVERPOOL 2170", "locID": "LOC000008106205", "tech": "FTTP", "upgrade": "NULL_NA"}}, {"type": "Feature", "geometry": {"type": "Point", "coordinates": [150.91201159, -33.93344883]}, "properties": {"name": "12 DANALAM STREET LIVERPOOL 2170", "locID": "LOC000039868976", "tech": "HFC", "upgrade": "NULL_NA"}}, {"type": "Feature", "geometry": {"type": "Point", "coordinates": [150.91723567, -33.93734539]}, "properties": {"name": "12 DEERWOOD AVENUE LIVERPOOL 2170", "locID": "LOC000102508963", "tech": "FTTP", "upgrade": "NULL_NA"}}, {"type": "Feature", "geometry": {"type": "Point", "coordinates": [150.91164387, -33.91337514]}, "properties": {"name": "12 EDITH AVENUE LIVERPOOL 2170", "locID": "LOC000108203326", "tech": "FTTP", "upgrade": "NULL_NA"}}, {"type": "Feature", "geometry": {"type": "Point", "coordinates": [150.90723859, -33.92334942]}, "properties": {"name": "12 FERRINGTON CRESCENT LIVERPOOL 2170", "locID": "LOC000062206091", "tech": "FTTP", "upgrade": "NULL_NA"}}, {"type": "Feature", "geometry": {"type": "Point", "coordinates": [150.90908338, -33.91683853]}, "properties": {"name": "12 FLOWERDALE ROAD LIVERPOOL 2170", "locID": "LOC000050305215", "tech": "FTTP", "upgrade": "NULL_NA"}}, {"type": "Feature", "geometry": {"type": "Point", "coordinates": [150.90940412, -33.92750076]}, "properties": {"name": "12 FRANGIPANE AVENUE LIVERPOOL 2170", "locID": "LOC000086285478", "tech": "FTTP", "upgrade": "NULL_NA"}}, {"type": "Feature", "geometry": {"type": "Point", "coordinates": [150.90538326, -33.92149744]}, "properties": {"name": "12 GRACE STREET LIVERPOOL 2170", "locID": "LOC000043507392", "tech": "FTTP", "upgrade": "NULL_NA"}}, {"type": "Feature", "geometry": {"type": "Point", "coordinates": [150.91901196, -33.9145442]}, "properties": {"name": "12 GRIMSON CRESCENT LIVERPOOL 2170", "locID": "LOC000049399294", "tech": "FTTP", "upgrade": "NULL_NA"}}, {"type": "Feature", "geometry": {"type": "Point", "coordinates": [150.91272392, -33.92290858]}, "properties": {"name": "12 HILLIER ROAD LIVERPOOL 2170", "locID": "LOC000136219739", "tech": "FTTP", "upgrade": "NULL_NA"}}, {"type": "Feature", "geometry": {"type": "Point", "coordinates": [150.91620495, -33.92893239]}, "properties": {"name": "12 HOXTON PARK ROAD LIVERPOOL 2170", "locID": "LOC000003978173", "tech": "FTTP", "upgrade": "NULL_NA"}}, {"type": "Feature", "geometry": {"type": "Point", "coordinates": [150.90662849, -33.93459304]}, "properties": {"name": "12 IVES AVENUE LIVERPOOL 2170", "locID": "LOC000025636110", "tech": "HFC", "upgrade": "NULL_NA"}}, {"type": "Feature", "geometry": {"type": "Point", "coordinates": [150.90685239, -33.92145863]}, "properties": {"name": "12 KENNEDY STREET LIVERPOOL 2170", "locID": "LOC000099703205", "tech": "FTTP", "upgrade": "NULL_NA"}}, {"type": "Feature", "geometry": {"type": "Point", "coordinates": [150.90735724, -33.91680784]}, "properties": {"name": "12 KILLINGER AVENUE LIVERPOOL 2170", "locID": "LOC000099962214", "tech": "FTTP", "upgrade": "NULL_NA"}}, {"type": "Feature", "geometry": {"type": "Point", "coordinates": [150.90816656, -33.91628867]}, "properties": {"name": "12 LEHMANN AVENUE LIVERPOOL 2170", "locID": "LOC000079200387", "tech": "FTTP", "upgrade": "NULL_NA"}}, {"type": "Feature", "geometry": {"type": "Point", "coordinates": [150.910182, -33.91406887]}, "properties": {"name": "12 LIGATO PLACE LIVERPOOL 2170", "locID": "LOC000008112168", "tech": "FTTP", "upgrade": "NULL_NA"}}, {"type": "Feature", "geometry": {"type": "Point", "coordinates": [150.90657811, -33.9251074]}, "properties": {"name": "12 MAINSBRIDGE AVENUE LIVERPOOL 2170", "locID": "LOC000038003330", "tech": "FTTP", "upgrade": "NULL_NA"}}, {"type": "Feature", "geometry": {"type": "Point", "coordinates": [150.91205486, -33.91272744]}, "properties": {"name": "12 MARSDEN ROAD LIVERPOOL 2170", "locID": "LOC000078603498", "tech": "FTTP", "upgrade": "NULL_NA"}}, {"type": "Feature", "geometry": {"type": "Point", "coordinates": [150.90582225, -33.93683294]}, "properties": {"name": "12 MARY CRESCENT LIVERPOOL 2170", "locID": "LOC000031315519", "tech": "HFC", "upgrade": "NULL_NA"}}, {"type": "Feature", "geometry": {"type": "Point", "coordinates": [150.90481356, -33.92388674]}, "properties": {"name": "12 MARYVALE AVENUE LIVERPOOL 2170", "locID": "LOC000019804339", "tech": "FTTP", "upgrade": "NULL_NA"}}, {"type": "Feature", "geometry": {"type": "Point", "coordinates": [150.91400427, -33.91954362]}, "properties": {"name": "12 MAYBERRY CRESCENT LIVERPOOL 2170", "locID": "LOC000081105930", "tech": "FTTP", "upgrade": "NULL_NA"}}, {"type": "Feature", "geometry": {"type": "Point", "coordinates": [150.92125343, -33.9321506]}, "properties": {"name": "12 MCGOWEN CRESCENT LIVERPOOL 2170", "locID": "LOC000020896743", "tech": "FTTP", "upgrade": "NULL_NA"}}, {"type": "Feature", "geometry": {"type": "Point", "coordinates": [150.91350767, -33.91198426]}, "properties": {"name": "12 MCMAHON AVENUE LIVERPOOL 2170", "locID": "LOC000099035123", "tech": "FTTP", "upgrade": "NULL_NA"}}, {"type": "Feature", "geometry": {"type": "Point", "coordinates": [150.91748549, -33.9093548]}, "properties": {"name": "12 MEDLEY AVENUE LIVERPOOL 2170", "locID": "LOC000088549851", "tech": "FTTP", "upgrade": "NULL_NA"}}, {"type": "Feature", "geometry": {"type": "Point", "coordinates": [150.92087639, -33.92971522]}, "properties": {"name": "12 MILL ROAD LIVERPOOL 2170", "locID": "LOC000136116653", "tech": "FTTP", "upgrade": "NULL_NA"}}, {"type": "Feature", "geometry": {"type": "Point", "coordinates": [150.91595204, -33.93560361]}, "properties": {"name": "12 MONTECLAIR AVENUE LIVERPOOL 2170", "locID": "LOC000046887023", "tech": "FTTP", "upgrade": "NULL_NA"}}, {"type": "Feature", "geometry": {"type": "Point", "coordinates": [150.91200416, -33.92445234]}, "properties": {"name": "12 MURPHY AVENUE LIVERPOOL 2170", "locID": "LOC000080829930", "tech": "FTTP", "upgrade": "NULL_NA"}}, {"type": "Feature", "geometry": {"type": "Point", "coordinates": [150.9226911, -33.92750324]}, "properties": {"name": "12 NAGLE STREET LIVERPOOL 2170", "locID": "LOC000136126101", "tech": "FTTP", "upgrade": "NULL_NA"}}, {"type": "Feature", "geometry": {"type": "Point", "coordinates": [150.91728214, -33.91086309]}, "properties": {"name": "12 O'BRIEN PARADE LIVERPOOL 2170", "locID": "LOC000092190140", "tech": "FTTP", "upgrade": "NULL_NA"}}, {"type": "Feature", "geometry": {"type": "Point", "coordinates": [150.91759839, -33.9362971]}, "properties": {"name": "12 OAKBORNE ROAD LIVERPOOL 2170", "locID": "LOC000022288305", "tech": "FTTP", "upgrade": "NULL_NA"}}, {"type": "Feature", "geometry": {"type": "Point", "coordinates": [150.91009189, -33.93236343]}, "properties": {"name": "12 PANETTA AVENUE LIVERPOOL 2170", "locID": "LOC000025005626", "tech": "HFC", "upgrade": "NULL_NA"}}, {"type": "Feature", "geometry": {"type": "Point", "coordinates": [150.91558257, -33.91889854]}, "properties": {"name": "12 PARK ROAD LIVERPOOL 2170", "locID": "LOC000105052307", "tech": "FTTP", "upgrade": "NULL_NA"}}, {"type": "Feature", "geometry": {"type": "Point", "coordinates": [150.91546351, -33.93157582]}, "properties": {"name": "12 PASSEFIELD STREET LIVERPOOL 2170", "locID": "LOC000080897388", "tech": "FTTP", "upgrade": "NULL_NA"}}, {"type": "Feature", "geometry": {"type": "Point", "coordinates": [150.91557961, -33.92977624]}, "properties": {"name": "12 PEARCE STREET LIVERPOOL 2170", "locID": "LOC000080661780", "tech": "FTTP", "upgrade": "NULL_NA"}}, {"type": "Feature", "geometry": {"type": "Point", "coordinates": [150.90840018, -33.93231073]}, "properties": {"name": "12 RAINE AVENUE LIVERPOOL 2170", "locID": "LOC000051903185", "tech": "HFC", "upgrade": "NULL_NA"}}, {"type": "Feature", "geometry": {"type": "Point", "coordinates": [150.91378055, -33.93458901]}, "properties": {"name": "12 REILLY STREET LIVERPOOL 2170", "locID": "LOC000001506038", "tech": "HFC", "upgrade": "NULL_NA"}}, {"type": "Feature", "geometry": {"type": "Point", "coordinates": [150.90391487, -33.92526741]}, "properties": {"name": "12 ROLAND AVENUE LIVERPOOL 2170", "locID": "LOC000008051190", "tech": "FTTP", "upgrade": "NULL_NA"}}, {"type": "Feature", "geometry": {"type": "Point", "coordinates": [150.91522595, -33.93253224]}, "properties": {"name": "12 ROSE STREET LIVERPOOL 2170", "locID": "LOC000046189840", "tech": "FTTP", "upgrade": "NULL_NA"}}, {"type": "Feature", "geometry": {"type": "Point", "coordinates": [150.91080484, -33.91733775]}, "properties": {"name": "12 ROSLYN STREET LIVERPOOL 2170", "locID": "LOC000023250023", "tech": "FTTP", "upgrade": "NULL_NA"}}, {"type": "Feature", "geometry": {"type": "Point", "coordinates": [150.91826646, -33.91130161]}, "properties": {"name": "12 ROTARY STREET LIVERPOOL 2170", "locID": "LOC000103003004", "tech": "FTTP", "upgrade": "NULL_NA"}}, {"type": "Feature", "geometry": {"type": "Point", "coordinates": [150.9259313, -33.9255395]}, "properties": {"name": "12 SCOTT STREET LIVERPOOL 2170", "locID": "LOC000024167528", "tech": "FTTP", "upgrade": "NULL_NA"}}, {"type": "Feature", "geometry": {"type": "Point", "coordinates": [150.90919356, -33.92536558]}, "properties": {"name": "12 SMITH CRESCENT LIVERPOOL 2170", "locID": "LOC000107312870", "tech": "FTTP", "upgrade": "NULL_NA"}}, {"type": "Feature", "geometry": {"type": "Point", "coordinates": [150.90347124, -33.92443345]}, "properties": {"name": "12 ST PAULS CRESCENT LIVERPOOL 2170", "locID": "LOC000002276375", "tech": "FTTP", "upgrade": "NULL_NA"}}, {"type": "Feature", "geometry": {"type": "Point", "coordinates": [150.90778248, -33.92155146]}, "properties": {"name": "12 STANTON STREET LIVERPOOL 2170", "locID": "LOC000057139882", "tech": "FTTP", "upgrade": "NULL_NA"}}, {"type": "Feature", "geometry": {"type": "Point", "coordinates": [150.90981485, -33.92438237]}, "properties": {"name": "12 TOBRUK AVENUE LIVERPOOL 2170", "locID": "LOC000173382873", "tech": "FTTP", "upgrade": "NULL_NA"}}, {"type": "Feature", "geometry": {"type": "Point", "coordinates": [150.90686939, -33.9364599]}, "properties": {"name": "12 TULLY AVENUE LIVERPOOL 2170", "locID": "LOC000008941398", "tech": "HFC", "upgrade": "NULL_NA"}}, {"type": "Feature", "geometry": {"type": "Point", "coordinates": [150.91621454, -33.91180786]}, "properties": {"name": "12 VINCENT AVENUE LIVERPOOL 2170", "locID": "LOC000063090041", "tech": "FTTP", "upgrade": "NULL_NA"}}, {"type": "Feature", "geometry": {"type": "Point", "coordinates": [150.91622138, -33.91346018]}, "properties": {"name": "12 VIOLET AVENUE LIVERPOOL 2170", "locID": "LOC000008111064", "tech": "FTTP", "upgrade": "NULL_NA"}}, {"type": "Feature", "geometry": {"type": "Point", "coordinates": [150.91661322, -33.91007407]}, "properties": {"name": "12 WILDMAN AVENUE LIVERPOOL 2170", "locID": "LOC000110183302", "tech": "FTTP", "upgrade": "NULL_NA"}}, {"type": "Feature", "geometry": {"type": "Point", "coordinates": [150.91156272, -33.91509671]}, "properties": {"name": "12 WOODLANDS ROAD LIVERPOOL 2170", "locID": "LOC000106124722", "tech": "FTTP", "upgrade": "NULL_NA"}}, {"type": "Feature", "geometry": {"type": "Point", "coordinates": [150.92651799, -33.91608785]}, "properties": {"name": "12-14 GEORGE STREET LIVERPOOL 2170", "locID": "LOC100063476791", "tech": "FTTB", "upgrade": "NULL_NA"}}, {"type": "Feature", "geometry": {"type": "Point", "coordinates": [150.92277851, -33.91644968]}, "properties": {"name": "12-18 BATHURST STREET LIVERPOOL 2170", "locID": "LOC000139809110", "tech": "FTTP", "upgrade": "NULL_NA"}}, {"type": "Feature", "geometry": {"type": "Point", "coordinates": [150.9255998, -33.91583072]}, "properties": {"name": "12-20 LACHLAN STREET LIVERPOOL 2170", "locID": "LOC000146871683", "tech": "FTTP", "upgrade": "NULL_NA"}}, {"type": "Feature", "geometry": {"type": "Point", "coordinates": [150.91261259, -33.93026713]}, "properties": {"name": "120 ATKINSON STREET LIVERPOOL 2170", "locID": "LOC000002198849", "tech": "FTTP", "upgrade": "NULL_NA"}}, {"type": "Feature", "geometry": {"type": "Point", "coordinates": [150.91149561, -33.91721042]}, "properties": {"name": "120 ELIZABETH DRIVE LIVERPOOL 2170", "locID": "LOC000115362327", "tech": "FTTP", "upgrade": "NULL_NA"}}, {"type": "Feature", "geometry": {"type": "Point", "coordinates": [150.91250432, -33.92374914]}, "properties": {"name": "120 MEMORIAL AVENUE LIVERPOOL 2170", "locID": "LOC000136201979", "tech": "FTTP", "upgrade": "NULL_NA"}}, {"type": "Feature", "geometry": {"type": "Point", "coordinates": [150.92058146, -33.92239191]}, "properties": {"name": "120 MOORE STREET LIVERPOOL 2170", "locID": "LOC000031800653", "tech": "FTTP", "upgrade": "NULL_NA"}}, {"type": "Feature", "geometry": {"type": "Point", "coordinates": [150.91297166, -33.92979002]}, "properties": {"name": "121 ATKINSON STREET LIVERPOOL 2170", "locID": "LOC000136188059", "tech": "FTTP", "upgrade": "NULL_NA"}}, {"type": "Feature", "geometry": {"type": "Point", "coordinates": [150.91897218, -33.92596624]}, "properties": {"name": "121 CASTLEREAGH STREET LIVERPOOL 2170", "locID": "LOC000048404171", "tech": "FTTP", "upgrade": "NULL_NA"}}, {"type": "Feature", "geometry": {"type": "Point", "coordinates": [150.91448638, -33.91790623]}, "properties": {"name": "121 ELIZABETH DRIVE LIVERPOOL 2170", "locID": "LOC000146008953", "tech": "FTTP", "upgrade": "NULL_NA"}}, {"type": "Feature", "geometry": {"type": "Point", "coordinates": [150.90831466, -33.92580246]}, "properties": {"name": "121 FLOWERDALE ROAD LIVERPOOL 2170", "locID": "LOC000189312206", "tech": "FTTP", "upgrade": "NULL_NA"}}, {"type": "Feature", "geometry": {"type": "Point", "coordinates": [150.91021435, -33.91158069]}, "properties": {"name": "121 MEDLEY AVENUE LIVERPOOL 2170", "locID": "LOC000102057658", "tech": "FTTP", "upgrade": "NULL_NA"}}, {"type": "Feature", "geometry": {"type": "Point", "coordinates": [150.91890123, -33.91258436]}, "properties": {"name": "121 ORANGE GROVE ROAD LIVERPOOL 2170", "locID": "LOC000087391470", "tech": "FTTP", "upgrade": "NULL_NA"}}, {"type": "Feature", "geometry": {"type": "Point", "coordinates": [150.91242277, -33.9302415]}, "properties": {"name": "122 ATKINSON STREET LIVERPOOL 2170", "locID": "LOC000106075849", "tech": "FTTP", "upgrade": "NULL_NA"}}, {"type": "Feature", "geometry": {"type": "Point", "coordinates": [150.92041947, -33.92237054]}, "properties": {"name": "122 MOORE STREET LIVERPOOL 2170", "locID": "LOC000102705273", "tech": "FTTP", "upgrade": "NULL_NA"}}, {"type": "Feature", "geometry": {"type": "Point", "coordinates": [150.91281241, -33.92976845]}, "properties": {"name": "123 ATKINSON STREET LIVERPOOL 2170", "locID": "LOC000019741504", "tech": "FTTP", "upgrade": "NULL_NA"}}, {"type": "Feature", "geometry": {"type": "Point", "coordinates": [150.91929291, -33.92630519]}, "properties": {"name": "123 CASTLEREAGH STREET LIVERPOOL 2170", "locID": "LOC000178526788", "tech": "FTTP", "upgrade": "NULL_NA"}}, {"type": "Feature", "geometry": {"type": "Point", "coordinates": [150.91416274, -33.91789285]}, "properties": {"name": "123 ELIZABETH DRIVE LIVERPOOL 2170", "locID": "LOC000107423290", "tech": "FTTP", "upgrade": "NULL_NA"}}, {"type": "Feature", "geometry": {"type": "Point", "coordinates": [150.90830734, -33.92594503]}, "properties": {"name": "123 FLOWERDALE ROAD LIVERPOOL 2170", "locID": "LOC000041962981", "tech": "FTTP", "upgrade": "NULL_NA"}}, {"type": "Feature", "geometry": {"type": "Point", "coordinates": [150.91010751, -33.91168388]}, "properties": {"name": "123 MEDLEY AVENUE LIVERPOOL 2170", "locID": "LOC000034080358", "tech": "FTTP", "upgrade": "NULL_NA"}}, {"type": "Feature", "geometry": {"type": "Point", "coordinates": [150.91894291, -33.91271498]}, "properties": {"name": "123 ORANGE GROVE ROAD LIVERPOOL 2170", "locID": "LOC000055280542", "tech": "FTTP", "upgrade": "NULL_NA"}}, {"type": "Feature", "geometry": {"type": "Point", "coordinates": [150.90830734, -33.92594503]}, "properties": {"name": "123A FLOWERDALE ROAD LIVERPOOL 2170", "locID": "LOC000148647452", "tech": "FTTP", "upgrade": "NULL_NA"}}, {"type": "Feature", "geometry": {"type": "Point", "coordinates": [150.91227357, -33.93022129]}, "properties": {"name": "124 ATKINSON STREET LIVERPOOL 2170", "locID": "LOC000057455978", "tech": "FTTP", "upgrade": "NULL_NA"}}, {"type": "Feature", "geometry": {"type": "Point", "coordinates": [150.92815208, -33.92133967]}, "properties": {"name": "124 BIGGE STREET LIVERPOOL 2170", "locID": "LOC000164339352", "tech": "FTTP", "upgrade": "NULL_NA"}}, {"type": "Feature", "geometry": {"type": "Point", "coordinates": [150.91129151, -33.91745244]}, "properties": {"name": "124 ELIZABETH DRIVE LIVERPOOL 2170", "locID": "LOC000115362336", "tech": "FTTP", "upgrade": "NULL_NA"}}, {"type": "Feature", "geometry": {"type": "Point", "coordinates": [150.92449735, -33.91998348]}, "properties": {"name": "124 MACQUARIE STREET LIVERPOOL 2170", "locID": "LOC000152026358", "tech": "FTTP", "upgrade": "NULL_NA"}}, {"type": "Feature", "geometry": {"type": "Point", "coordinates": [150.92025847, -33.92234939]}, "properties": {"name": "124 MOORE STREET LIVERPOOL 2170", "locID": "LOC000094448854", "tech": "FTTP", "upgrade": "NULL_NA"}}, {"type": "Feature", "geometry": {"type": "Point", "coordinates": [150.91264908, -33.92974639]}, "properties": {"name": "125 ATKINSON STREET LIVERPOOL 2170", "locID": "LOC000043295611", "tech": "FTTP", "upgrade": "NULL_NA"}}, {"type": "Feature", "geometry": {"type": "Point", "coordinates": [150.91931205, -33.92647409]}, "properties": {"name": "125 CASTLEREAGH STREET LIVERPOOL 2170", "locID": "LOC000161092382", "tech": "FTTP", "upgrade": "NULL_NA"}}, {"type": "Feature", "geometry": {"type": "Point", "coordinates": [150.90819364, -33.92609287]}, "properties": {"name": "125 FLOWERDALE ROAD LIVERPOOL 2170", "locID": "LOC000136195667", "tech": "FTTP", "upgrade": "NULL_NA"}}, {"type": "Feature", "geometry": {"type": "Point", "coordinates": [150.90999838, -33.91178648]},